{
  "type": "FeatureCollection",
  "features": [
    {
      "type": "Feature",
      "properties": {
        "partner": "WFP",
        "region": "Bari",
        "district": "Bossaso",
        "Town_Village": "100 Bush IDP",
        "site_type": "MCHN",
        "": ""
      },
      "geometry": {
        "type": "Point",
        "coordinates": [
          49.169534,
          11.284088
        ]
      }
    },
    {
      "type": "Feature",
      "properties": {
        "partner": "WFP",
        "region": "Bari",
        "district": "Bossaso",
        "Town_Village": "100 Bush IDP",
        "site_type": "TSFP",
        "": ""
      },
      "geometry": {
        "type": "Point",
        "coordinates": [
          49.169534,
          11.284088
        ]
      }
    },
    {
      "type": "Feature",
      "properties": {
        "partner": "WFP",
        "region": "Bari",
        "district": "Bossaso",
        "Town_Village": "55 Bush IDP",
        "site_type": "TSFP",
        "": ""
      },
      "geometry": {
        "type": "Point",
        "coordinates": [
          49.169422,
          11.287213
        ]
      }
    },
    {
      "type": "Feature",
      "properties": {
        "partner": "WFP",
        "region": "Bay",
        "district": "Baidoa",
        "Town_Village": "Aawdiinle",
        "site_type": "TSFP",
        "": ""
      },
      "geometry": {
        "type": "Point",
        "coordinates": [
          43.40989,
          3.17055
        ]
      }
    },
    {
      "type": "Feature",
      "properties": {
        "partner": "WFP",
        "region": "Gedo",
        "district": "Luuq",
        "Town_Village": "Abdi Kheyr",
        "site_type": "TSFP",
        "": ""
      },
      "geometry": {
        "type": "Point",
        "coordinates": [
          42.527602,
          3.874028
        ]
      }
    },
    {
      "type": "Feature",
      "properties": {
        "partner": "WFP",
        "region": "Lower Shabelle",
        "district": "Afgooye",
        "Town_Village": "Afgooye",
        "site_type": "TSFP",
        "": ""
      },
      "geometry": {
        "type": "Point",
        "coordinates": [
          45.118698,
          2.14158
        ]
      }
    },
    {
      "type": "Feature",
      "properties": {
        "partner": "WFP",
        "region": "Lower Shabelle",
        "district": "Afgooye",
        "Town_Village": "Afgooye/Baalguri",
        "site_type": "TSFP",
        "": ""
      },
      "geometry": {
        "type": "Point",
        "coordinates": [
          45.1133,
          2.14242
        ]
      }
    },
    {
      "type": "Feature",
      "properties": {
        "partner": "WFP",
        "region": "Lower Juba",
        "district": "Afmadow",
        "Town_Village": "Afmadow ",
        "site_type": "TSFP",
        "": ""
      },
      "geometry": {
        "type": "Point",
        "coordinates": [
          42.073009,
          0.51486
        ]
      }
    },
    {
      "type": "Feature",
      "properties": {
        "partner": "WFP",
        "region": "Gedo",
        "district": "Luuq",
        "Town_Village": "Airport area",
        "site_type": "TSFP",
        "": ""
      },
      "geometry": {
        "type": "Point",
        "coordinates": [
          42.547561,
          3.806398
        ]
      }
    },
    {
      "type": "Feature",
      "properties": {
        "partner": "WFP",
        "region": "Galgaduud",
        "district": "Cabudwaaq",
        "Town_Village": "Ala Amin IDP",
        "site_type": "TSFP",
        "": ""
      },
      "geometry": {
        "type": "Point",
        "coordinates": [
          46.236583,
          6.225164
        ]
      }
    },
    {
      "type": "Feature",
      "properties": {
        "partner": "WFP",
        "region": "Gedo",
        "district": "Belet Xaawo",
        "Town_Village": "Alingo",
        "site_type": "TSFP",
        "": ""
      },
      "geometry": {
        "type": "Point",
        "coordinates": [
          41.89715,
          3.95131
        ]
      }
    },
    {
      "type": "Feature",
      "properties": {
        "partner": "WFP",
        "region": "Mudug",
        "district": "Gaalkacyo",
        "Town_Village": "Allamin 1 IDP ",
        "site_type": "TSFP",
        "": ""
      },
      "geometry": {
        "type": "Point",
        "coordinates": [
          47.42054,
          6.76574
        ]
      }
    },
    {
      "type": "Feature",
      "properties": {
        "partner": "WFP",
        "region": "Gedo",
        "district": "Luuq",
        "Town_Village": "Aroosow",
        "site_type": "TSFP",
        "": ""
      },
      "geometry": {
        "type": "Point",
        "coordinates": [
          42.47148,
          3.92472
        ]
      }
    },
    {
      "type": "Feature",
      "properties": {
        "partner": "WFP",
        "region": "Lower Shabelle",
        "district": "Wanla Weyn",
        "Town_Village": "Ashagoow",
        "site_type": "TSFP",
        "": ""
      },
      "geometry": {
        "type": "Point",
        "coordinates": [
          44.8554,
          2.53115
        ]
      }
    },
    {
      "type": "Feature",
      "properties": {
        "partner": "WFP",
        "region": "Lower Shabelle",
        "district": "Wanla Weyn",
        "Town_Village": "Aw Cusman",
        "site_type": "TSFP",
        "": ""
      },
      "geometry": {
        "type": "Point",
        "coordinates": [
          44.92598,
          2.65502
        ]
      }
    },
    {
      "type": "Feature",
      "properties": {
        "partner": "WFP",
        "region": "Lower Shabelle",
        "district": "Wanla Weyn",
        "Town_Village": "Aw Duurow",
        "site_type": "TSFP",
        "": ""
      },
      "geometry": {
        "type": "Point",
        "coordinates": [
          44.78148,
          2.5054
        ]
      }
    },
    {
      "type": "Feature",
      "properties": {
        "partner": "WFP",
        "region": "Bay",
        "district": "Baidoa",
        "Town_Village": "Awil barwaaqo",
        "site_type": "TSFP",
        "": ""
      },
      "geometry": {
        "type": "Point",
        "coordinates": [
          43.647554,
          3.129843
        ]
      }
    },
    {
      "type": "Feature",
      "properties": {
        "partner": "WFP",
        "region": "Nugaal",
        "district": "Burtinle",
        "Town_Village": "Awr Culus",
        "site_type": "MCHN",
        "": ""
      },
      "geometry": {
        "type": "Point",
        "coordinates": [
          47.990002,
          7.76667
        ]
      }
    },
    {
      "type": "Feature",
      "properties": {
        "partner": "WFP",
        "region": "Nugaal",
        "district": "Burtinle",
        "Town_Village": "Baaley",
        "site_type": "TSFP",
        "": ""
      },
      "geometry": {
        "type": "Point",
        "coordinates": [
          48.649179,
          7.915271
        ]
      }
    },
    {
      "type": "Feature",
      "properties": {
        "partner": "WFP",
        "region": "Gedo",
        "district": "Luuq",
        "Town_Village": "Baamudule",
        "site_type": "TSFP",
        "": ""
      },
      "geometry": {
        "type": "Point",
        "coordinates": [
          42.555508,
          3.757402
        ]
      }
    },
    {
      "type": "Feature",
      "properties": {
        "partner": "WFP",
        "region": "Bari",
        "district": "Iskushuban",
        "Town_Village": "Baargaal",
        "site_type": "TSFP",
        "": ""
      },
      "geometry": {
        "type": "Point",
        "coordinates": [
          51.07728,
          11.28261
        ]
      }
    },
    {
      "type": "Feature",
      "properties": {
        "partner": "WFP",
        "region": "Bari",
        "district": "Iskushuban",
        "Town_Village": "Baargaal",
        "site_type": "MCHN",
        "": ""
      },
      "geometry": {
        "type": "Point",
        "coordinates": [
          51.07728,
          11.28261
        ]
      }
    },
    {
      "type": "Feature",
      "properties": {
        "partner": "WFP",
        "region": "Nugaal",
        "district": "Eyl",
        "Town_Village": "Baarweyn",
        "site_type": "TSFP",
        "": ""
      },
      "geometry": {
        "type": "Point",
        "coordinates": [
          49.3531,
          8.52195
        ]
      }
    },
    {
      "type": "Feature",
      "properties": {
        "partner": "WFP",
        "region": "Hiraan",
        "district": "Belet Weyne",
        "Town_Village": "Bacaad Buko",
        "site_type": "TSFP",
        "": ""
      },
      "geometry": {
        "type": "Point",
        "coordinates": [
          45.17015,
          4.82618
        ]
      }
    },
    {
      "type": "Feature",
      "properties": {
        "partner": "WFP",
        "region": "Hiraan",
        "district": "Belet Weyne",
        "Town_Village": "Bacaad Buko",
        "site_type": "TSFP",
        "": ""
      },
      "geometry": {
        "type": "Point",
        "coordinates": [
          45.17015,
          4.82618
        ]
      }
    },
    {
      "type": "Feature",
      "properties": {
        "partner": "WFP",
        "region": "Mudug",
        "district": "Galdogob",
        "Town_Village": "Bacaadweyn",
        "site_type": "TSFP",
        "": ""
      },
      "geometry": {
        "type": "Point",
        "coordinates": [
          47.52673,
          7.19168
        ]
      }
    },
    {
      "type": "Feature",
      "properties": {
        "partner": "WFP",
        "region": "Mudug",
        "district": "Hobyo",
        "Town_Village": "Bacadwayn",
        "site_type": "TSFP",
        "": ""
      },
      "geometry": {
        "type": "Point",
        "coordinates": [
          48.248491,
          5.221703
        ]
      }
    },
    {
      "type": "Feature",
      "properties": {
        "partner": "WFP",
        "region": "Sanaag",
        "district": "Ceerigaabo",
        "Town_Village": "Badhan",
        "site_type": "MCHN",
        "": ""
      },
      "geometry": {
        "type": "Point",
        "coordinates": [
          48.332528,
          10.713436
        ]
      }
    },
    {
      "type": "Feature",
      "properties": {
        "partner": "WFP",
        "region": "Sanaag",
        "district": "Ceerigaabo",
        "Town_Village": "Badhan",
        "site_type": "TSFP",
        "": ""
      },
      "geometry": {
        "type": "Point",
        "coordinates": [
          48.332528,
          10.713436
        ]
      }
    },
    {
      "type": "Feature",
      "properties": {
        "partner": "WFP",
        "region": "Sanaag",
        "district": "Laasqoray",
        "Town_Village": "Badhan",
        "site_type": "MCHN",
        "": ""
      },
      "geometry": {
        "type": "Point",
        "coordinates": [
          48.333218,
          10.706332
        ]
      }
    },
    {
      "type": "Feature",
      "properties": {
        "partner": "WFP",
        "region": "Sanaag",
        "district": "Ceel Afweyn",
        "Town_Village": "Badhi Galis Satellite",
        "site_type": "TSFP",
        "": ""
      },
      "geometry": {
        "type": "Point",
        "coordinates": [
          47.29558,
          9.97234
        ]
      }
    },
    {
      "type": "Feature",
      "properties": {
        "partner": "WFP",
        "region": "Mudug",
        "district": "Hobyo",
        "Town_Village": "Bajeelo",
        "site_type": "TSFP",
        "": ""
      },
      "geometry": {
        "type": "Point",
        "coordinates": [
          46.42169,
          6.2102
        ]
      }
    },
    {
      "type": "Feature",
      "properties": {
        "partner": "WFP",
        "region": "Bay",
        "district": "Baidoa",
        "Town_Village": "Bakaro weyn",
        "site_type": "TSFP",
        "": ""
      },
      "geometry": {
        "type": "Point",
        "coordinates": [
          43.6423,
          3.115933
        ]
      }
    },
    {
      "type": "Feature",
      "properties": {
        "partner": "WFP",
        "region": "Sanaag",
        "district": "Ceel Afweyn",
        "Town_Village": "Balan Baal",
        "site_type": "TSFP",
        "": ""
      },
      "geometry": {
        "type": "Point",
        "coordinates": [
          46.676068,
          9.597465
        ]
      }
    },
    {
      "type": "Feature",
      "properties": {
        "partner": "WFP",
        "region": "Galgaduud",
        "district": "Cabudwaaq",
        "Town_Village": "Balanbal",
        "site_type": "TSFP",
        "": ""
      },
      "geometry": {
        "type": "Point",
        "coordinates": [
          45.768628,
          5.763569
        ]
      }
    },
    {
      "type": "Feature",
      "properties": {
        "partner": "WFP",
        "region": "Nugaal",
        "district": "Garowe",
        "Town_Village": "Baley",
        "site_type": "TSFP",
        "": ""
      },
      "geometry": {
        "type": "Point",
        "coordinates": [
          48.60205,
          8.50515
        ]
      }
    },
    {
      "type": "Feature",
      "properties": {
        "partner": "WFP",
        "region": "Sanaag",
        "district": "Laasqoray",
        "Town_Village": "Bali Busle",
        "site_type": "TSFP",
        "": ""
      },
      "geometry": {
        "type": "Point",
        "coordinates": [
          48.892608,
          10.048338
        ]
      }
    },
    {
      "type": "Feature",
      "properties": {
        "partner": "WFP",
        "region": "Togdheer",
        "district": "Owdweyne",
        "Town_Village": "Bali Cabdule",
        "site_type": "TSFP",
        "": ""
      },
      "geometry": {
        "type": "Point",
        "coordinates": [
          44.79637,
          8.96122
        ]
      }
    },
    {
      "type": "Feature",
      "properties": {
        "partner": "WFP",
        "region": "Galgaduud",
        "district": "Dhuusamarreeb",
        "Town_Village": "Bali Cad",
        "site_type": "TSFP",
        "": ""
      },
      "geometry": {
        "type": "Point",
        "coordinates": [
          46.09062,
          5.48048
        ]
      }
    },
    {
      "type": "Feature",
      "properties": {
        "partner": "WFP",
        "region": "Togdheer",
        "district": "Buuhoodle",
        "Town_Village": "Bali Cad",
        "site_type": "TSFP",
        "": ""
      },
      "geometry": {
        "type": "Point",
        "coordinates": [
          46.75012,
          8.08616
        ]
      }
    },
    {
      "type": "Feature",
      "properties": {
        "partner": "WFP",
        "region": "Sool",
        "district": "Caynabo",
        "Town_Village": "Bali-Caraale",
        "site_type": "TSFP",
        "": ""
      },
      "geometry": {
        "type": "Point",
        "coordinates": [
          46.32145,
          9.65104
        ]
      }
    },
    {
      "type": "Feature",
      "properties": {
        "partner": "WFP",
        "region": "Nugaal",
        "district": "Burtinle",
        "Town_Village": "Balidacar",
        "site_type": "TSFP",
        "": ""
      },
      "geometry": {
        "type": "Point",
        "coordinates": [
          48.882647,
          8.820793
        ]
      }
    },
    {
      "type": "Feature",
      "properties": {
        "partner": "WFP",
        "region": "Bari",
        "district": "Qandala",
        "Town_Village": "Balidhidin",
        "site_type": "TSFP",
        "": ""
      },
      "geometry": {
        "type": "Point",
        "coordinates": [
          50.39222,
          10.87986
        ]
      }
    },
    {
      "type": "Feature",
      "properties": {
        "partner": "WFP",
        "region": "Togdheer",
        "district": "Buuhoodle",
        "Town_Village": "Bali-Hadhac",
        "site_type": "TSFP",
        "": ""
      },
      "geometry": {
        "type": "Point",
        "coordinates": [
          46.84215,
          8.44057
        ]
      }
    },
    {
      "type": "Feature",
      "properties": {
        "partner": "WFP",
        "region": "Nugaal",
        "district": "Eyl",
        "Town_Village": "Balli Dacar",
        "site_type": "TSFP",
        "": ""
      },
      "geometry": {
        "type": "Point",
        "coordinates": [
          49.813061,
          7.97611
        ]
      }
    },
    {
      "type": "Feature",
      "properties": {
        "partner": "WFP",
        "region": "Togdheer",
        "district": "Burco",
        "Town_Village": "Balli Hiille",
        "site_type": "TSFP",
        "": ""
      },
      "geometry": {
        "type": "Point",
        "coordinates": [
          45.580224,
          9.179665
        ]
      }
    },
    {
      "type": "Feature",
      "properties": {
        "partner": "WFP",
        "region": "Mudug",
        "district": "Gaalkacyo",
        "Town_Village": "Ballibusle",
        "site_type": "TSFP",
        "": ""
      },
      "geometry": {
        "type": "Point",
        "coordinates": [
          48.158126,
          7.094637
        ]
      }
    },
    {
      "type": "Feature",
      "properties": {
        "partner": "WFP",
        "region": "Lower Shabelle",
        "district": "Wanla Weyn",
        "Town_Village": "Baloow",
        "site_type": "TSFP",
        "": ""
      },
      "geometry": {
        "type": "Point",
        "coordinates": [
          44.82593,
          2.64477
        ]
      }
    },
    {
      "type": "Feature",
      "properties": {
        "partner": "WFP",
        "region": "Gedo",
        "district": "Luuq",
        "Town_Village": "Ban Munduli",
        "site_type": "TSFP",
        "": ""
      },
      "geometry": {
        "type": "Point",
        "coordinates": [
          42.55694,
          3.75773
        ]
      }
    },
    {
      "type": "Feature",
      "properties": {
        "partner": "WFP",
        "region": "Bari",
        "district": "Bandarbayla",
        "Town_Village": "Bandarbayla",
        "site_type": "TSFP",
        "": ""
      },
      "geometry": {
        "type": "Point",
        "coordinates": [
          50.81277,
          9.49563
        ]
      }
    },
    {
      "type": "Feature",
      "properties": {
        "partner": "WFP",
        "region": "Bari",
        "district": "Bandarbayla",
        "Town_Village": "Bandarbayla",
        "site_type": "MCHN",
        "": ""
      },
      "geometry": {
        "type": "Point",
        "coordinates": [
          50.81277,
          9.49563
        ]
      }
    },
    {
      "type": "Feature",
      "properties": {
        "partner": "WFP",
        "region": "Mudug",
        "district": "Gaalkacyo",
        "Town_Village": "Bandiidley",
        "site_type": "MCHN",
        "": ""
      },
      "geometry": {
        "type": "Point",
        "coordinates": [
          46.386698,
          5.537643
        ]
      }
    },
    {
      "type": "Feature",
      "properties": {
        "partner": "WFP",
        "region": "Mudug",
        "district": "Gaalkacyo",
        "Town_Village": "Bandiidley",
        "site_type": "TSFP",
        "": ""
      },
      "geometry": {
        "type": "Point",
        "coordinates": [
          46.945358,
          6.47979
        ]
      }
    },
    {
      "type": "Feature",
      "properties": {
        "partner": "WFP",
        "region": "Mudug",
        "district": "Gaalkacyo",
        "Town_Village": "Bandiidley",
        "site_type": "MCHN",
        "": ""
      },
      "geometry": {
        "type": "Point",
        "coordinates": [
          46.94945,
          6.480331
        ]
      }
    },
    {
      "type": "Feature",
      "properties": {
        "partner": "WFP",
        "region": "Mudug",
        "district": "Gaalkacyo",
        "Town_Village": "Bandiidley",
        "site_type": "TSFP",
        "": ""
      },
      "geometry": {
        "type": "Point",
        "coordinates": [
          46.946404,
          6.474181
        ]
      }
    },
    {
      "type": "Feature",
      "properties": {
        "partner": "WFP",
        "region": "Nugaal",
        "district": "Eyl",
        "Town_Village": "Bandunbuto",
        "site_type": "TSFP",
        "": ""
      },
      "geometry": {
        "type": "Point",
        "coordinates": [
          49.421,
          8.51544
        ]
      }
    },
    {
      "type": "Feature",
      "properties": {
        "partner": "WFP",
        "region": "Galgaduud",
        "district": "Cabudwaaq",
        "Town_Village": "Bangeele",
        "site_type": "TSFP",
        "": ""
      },
      "geometry": {
        "type": "Point",
        "coordinates": [
          46.3072,
          6.24178
        ]
      }
    },
    {
      "type": "Feature",
      "properties": {
        "partner": "WFP",
        "region": "Togdheer",
        "district": "Buuhoodle",
        "Town_Village": "Banyaal",
        "site_type": "TSFP",
        "": ""
      },
      "geometry": {
        "type": "Point",
        "coordinates": [
          46.53861,
          8.36836
        ]
      }
    },
    {
      "type": "Feature",
      "properties": {
        "partner": "WFP",
        "region": "Nugaal",
        "district": "Eyl",
        "Town_Village": "Baqbaq",
        "site_type": "TSFP",
        "": ""
      },
      "geometry": {
        "type": "Point",
        "coordinates": [
          49.488331,
          7.82861
        ]
      }
    },
    {
      "type": "Feature",
      "properties": {
        "partner": "WFP",
        "region": "Sanaag",
        "district": "Ceerigaabo",
        "Town_Village": "Baraagaha Qol",
        "site_type": "MCHN",
        "": ""
      },
      "geometry": {
        "type": "Point",
        "coordinates": [
          48.4924,
          9.55739
        ]
      }
    },
    {
      "type": "Feature",
      "properties": {
        "partner": "WFP",
        "region": "Sanaag",
        "district": "Ceerigaabo",
        "Town_Village": "Baraagaha Qol",
        "site_type": "TSFP",
        "": ""
      },
      "geometry": {
        "type": "Point",
        "coordinates": [
          48.4924,
          9.55739
        ]
      }
    },
    {
      "type": "Feature",
      "properties": {
        "partner": "WFP",
        "region": "Bari",
        "district": "Caluula",
        "Town_Village": "Bareeda",
        "site_type": "TSFP",
        "": ""
      },
      "geometry": {
        "type": "Point",
        "coordinates": [
          51.05796,
          11.8702
        ]
      }
    },
    {
      "type": "Feature",
      "properties": {
        "partner": "WFP",
        "region": "Galgaduud",
        "district": "Cadaado",
        "Town_Village": "Baxdo",
        "site_type": "TSFP",
        "": ""
      },
      "geometry": {
        "type": "Point",
        "coordinates": [
          47.04234,
          6.36934
        ]
      }
    },
    {
      "type": "Feature",
      "properties": {
        "partner": "WFP",
        "region": "Mudug",
        "district": "Gaalkacyo",
        "Town_Village": "Bayle",
        "site_type": "TSFP",
        "": ""
      },
      "geometry": {
        "type": "Point",
        "coordinates": [
          47.42054,
          6.76574
        ]
      }
    },
    {
      "type": "Feature",
      "properties": {
        "partner": "WFP",
        "region": "Nugaal",
        "district": "Eyl",
        "Town_Village": "Bedey",
        "site_type": "TSFP",
        "": ""
      },
      "geometry": {
        "type": "Point",
        "coordinates": [
          49.83521,
          7.98566
        ]
      }
    },
    {
      "type": "Feature",
      "properties": {
        "partner": "WFP",
        "region": "Nugaal",
        "district": "Eyl",
        "Town_Village": "Bedey",
        "site_type": "MCHN",
        "": ""
      },
      "geometry": {
        "type": "Point",
        "coordinates": [
          49.83521,
          7.98566
        ]
      }
    },
    {
      "type": "Feature",
      "properties": {
        "partner": "WFP",
        "region": "Sanaag",
        "district": "Ceerigaabo",
        "Town_Village": "Beer Weyso",
        "site_type": "TSFP",
        "": ""
      },
      "geometry": {
        "type": "Point",
        "coordinates": [
          47.535593,
          9.753127
        ]
      }
    },
    {
      "type": "Feature",
      "properties": {
        "partner": "WFP",
        "region": "Hiraan",
        "district": "Belet Weyne",
        "Town_Village": "Beer-Gadiid",
        "site_type": "TSFP",
        "": ""
      },
      "geometry": {
        "type": "Point",
        "coordinates": [
          45.31428,
          5.083
        ]
      }
    },
    {
      "type": "Feature",
      "properties": {
        "partner": "WFP",
        "region": "Gedo",
        "district": "Belet Xaawo",
        "Town_Village": "Belet Xaawo",
        "site_type": "TSFP",
        "": ""
      },
      "geometry": {
        "type": "Point",
        "coordinates": [
          41.89431,
          3.78074
        ]
      }
    },
    {
      "type": "Feature",
      "properties": {
        "partner": "WFP",
        "region": "Gedo",
        "district": "Belet Xaawo",
        "Town_Village": "Belet Xaawo",
        "site_type": "MCHN",
        "": ""
      },
      "geometry": {
        "type": "Point",
        "coordinates": [
          41.89431,
          3.78074
        ]
      }
    },
    {
      "type": "Feature",
      "properties": {
        "partner": "WFP",
        "region": "Gedo",
        "district": "Belet Xaawo",
        "Town_Village": "Belet Xaawo",
        "site_type": "TSFP",
        "": ""
      },
      "geometry": {
        "type": "Point",
        "coordinates": [
          41.89431,
          3.78074
        ]
      }
    },
    {
      "type": "Feature",
      "properties": {
        "partner": "WFP",
        "region": "Bay",
        "district": "Baidoa",
        "Town_Village": "Berdale",
        "site_type": "TSFP",
        "": ""
      },
      "geometry": {
        "type": "Point",
        "coordinates": [
          43.198048,
          3.214367
        ]
      }
    },
    {
      "type": "Feature",
      "properties": {
        "partner": "WFP",
        "region": "Bay",
        "district": "Baidoa",
        "Town_Village": "Berdale/Horseed",
        "site_type": "TSFP",
        "": ""
      },
      "geometry": {
        "type": "Point",
        "coordinates": [
          43.199331,
          3.209721
        ]
      }
    },
    {
      "type": "Feature",
      "properties": {
        "partner": "WFP",
        "region": "Sool",
        "district": "Caynabo",
        "Town_Village": "Berkeda Cali Xirsi",
        "site_type": "TSFP",
        "": ""
      },
      "geometry": {
        "type": "Point",
        "coordinates": [
          46.49952,
          9.28393
        ]
      }
    },
    {
      "type": "Feature",
      "properties": {
        "partner": "WFP",
        "region": "Togdheer",
        "district": "Burco",
        "Town_Village": "Bilcilweyso",
        "site_type": "TSFP",
        "": ""
      },
      "geometry": {
        "type": "Point",
        "coordinates": [
          45.578504,
          8.935065
        ]
      }
    },
    {
      "type": "Feature",
      "properties": {
        "partner": "WFP",
        "region": "Nugaal",
        "district": "Garowe",
        "Town_Village": "Birta Dheer",
        "site_type": "TSFP",
        "": ""
      },
      "geometry": {
        "type": "Point",
        "coordinates": [
          48.305828,
          8.25639
        ]
      }
    },
    {
      "type": "Feature",
      "properties": {
        "partner": "WFP",
        "region": "Togdheer",
        "district": "Burco",
        "Town_Village": "Bisiqa",
        "site_type": "TSFP",
        "": ""
      },
      "geometry": {
        "type": "Point",
        "coordinates": [
          45.475798,
          8.705489
        ]
      }
    },
    {
      "type": "Feature",
      "properties": {
        "partner": "WFP",
        "region": "Sanaag",
        "district": "Ceel Afweyn",
        "Town_Village": "Bixin",
        "site_type": "TSFP",
        "": ""
      },
      "geometry": {
        "type": "Point",
        "coordinates": [
          47.086639,
          10.113809
        ]
      }
    },
    {
      "type": "Feature",
      "properties": {
        "partner": "WFP",
        "region": "Bari",
        "district": "Bossaso",
        "Town_Village": "Biyo Kulule IDP",
        "site_type": "TSFP",
        "": ""
      },
      "geometry": {
        "type": "Point",
        "coordinates": [
          49.195311,
          11.27766
        ]
      }
    },
    {
      "type": "Feature",
      "properties": {
        "partner": "WFP",
        "region": "Lower Shabelle",
        "district": "Wanla Weyn",
        "Town_Village": "Bocorey",
        "site_type": "TSFP",
        "": ""
      },
      "geometry": {
        "type": "Point",
        "coordinates": [
          44.90674,
          2.55362
        ]
      }
    },
    {
      "type": "Feature",
      "properties": {
        "partner": "WFP",
        "region": "Galgaduud",
        "district": "Cabudwaaq",
        "Town_Village": "Bohol",
        "site_type": "TSFP",
        "": ""
      },
      "geometry": {
        "type": "Point",
        "coordinates": [
          46.22785,
          5.74731
        ]
      }
    },
    {
      "type": "Feature",
      "properties": {
        "partner": "WFP",
        "region": "Bay",
        "district": "Baidoa",
        "Town_Village": "Bonkay IDP",
        "site_type": "TSFP",
        "": ""
      },
      "geometry": {
        "type": "Point",
        "coordinates": [
          43.6325,
          3.15408
        ]
      }
    },
    {
      "type": "Feature",
      "properties": {
        "partner": "WFP",
        "region": "Gedo",
        "district": "Belet Xaawo",
        "Town_Village": "Booca",
        "site_type": "TSFP",
        "": ""
      },
      "geometry": {
        "type": "Point",
        "coordinates": [
          41.882199,
          3.92148
        ]
      }
    },
    {
      "type": "Feature",
      "properties": {
        "partner": "WFP",
        "region": "Sool",
        "district": "Laas Caanood",
        "Town_Village": "Boocame",
        "site_type": "MCHN",
        "": ""
      },
      "geometry": {
        "type": "Point",
        "coordinates": [
          47.935664,
          8.396344
        ]
      }
    },
    {
      "type": "Feature",
      "properties": {
        "partner": "WFP",
        "region": "Banadir",
        "district": "Mogadishu/Boondheere",
        "Town_Village": "Boondheere",
        "site_type": "TSFP",
        "": ""
      },
      "geometry": {
        "type": "Point",
        "coordinates": [
          45.34,
          2.04555
        ]
      }
    },
    {
      "type": "Feature",
      "properties": {
        "partner": "WFP",
        "region": "Mudug",
        "district": "Hobyo",
        "Town_Village": "Budbud",
        "site_type": "TSFP",
        "": ""
      },
      "geometry": {
        "type": "Point",
        "coordinates": [
          48.5262,
          5.34743
        ]
      }
    },
    {
      "type": "Feature",
      "properties": {
        "partner": "WFP",
        "region": "Lower Shabelle",
        "district": "Marka",
        "Town_Village": "Bufow Ba'ad",
        "site_type": "TSFP",
        "": ""
      },
      "geometry": {
        "type": "Point",
        "coordinates": [
          44.7447,
          1.751345
        ]
      }
    },
    {
      "type": "Feature",
      "properties": {
        "partner": "WFP",
        "region": "Gedo",
        "district": "Ceel Waaq",
        "Town_Village": "Bula aday",
        "site_type": "TSFP",
        "": ""
      },
      "geometry": {
        "type": "Point",
        "coordinates": [
          41.027317,
          2.796994
        ]
      }
    },
    {
      "type": "Feature",
      "properties": {
        "partner": "WFP",
        "region": "Bari",
        "district": "Bossaso",
        "Town_Village": "Bula Elay IDP",
        "site_type": "MCHN",
        "": ""
      },
      "geometry": {
        "type": "Point",
        "coordinates": [
          49.196246,
          11.28228
        ]
      }
    },
    {
      "type": "Feature",
      "properties": {
        "partner": "WFP",
        "region": "Bari",
        "district": "Bossaso",
        "Town_Village": "Bula Elay IDP",
        "site_type": "TSFP",
        "": ""
      },
      "geometry": {
        "type": "Point",
        "coordinates": [
          49.196246,
          11.28228
        ]
      }
    },
    {
      "type": "Feature",
      "properties": {
        "partner": "WFP",
        "region": "Bari",
        "district": "Bossaso",
        "Town_Village": "Bula Mingis IDP",
        "site_type": "TSFP",
        "": ""
      },
      "geometry": {
        "type": "Point",
        "coordinates": [
          49.197919,
          11.280179
        ]
      }
    },
    {
      "type": "Feature",
      "properties": {
        "partner": "WFP",
        "region": "Gedo",
        "district": "Belet Xaawo",
        "Town_Village": "Buniyo",
        "site_type": "TSFP",
        "": ""
      },
      "geometry": {
        "type": "Point",
        "coordinates": [
          41.85122,
          3.5444
        ]
      }
    },
    {
      "type": "Feature",
      "properties": {
        "partner": "WFP",
        "region": "Sanaag",
        "district": "Laasqoray",
        "Town_Village": "Buraan",
        "site_type": "MCHN",
        "": ""
      },
      "geometry": {
        "type": "Point",
        "coordinates": [
          48.771055,
          10.220947
        ]
      }
    },
    {
      "type": "Feature",
      "properties": {
        "partner": "WFP",
        "region": "Sanaag",
        "district": "Laasqoray",
        "Town_Village": "Buraan",
        "site_type": "TSFP",
        "": ""
      },
      "geometry": {
        "type": "Point",
        "coordinates": [
          48.77067,
          10.21618
        ]
      }
    },
    {
      "type": "Feature",
      "properties": {
        "partner": "WFP",
        "region": "Middle Shabelle",
        "district": "Cadale",
        "Town_Village": "Bur-Dheere",
        "site_type": "TSFP",
        "": ""
      },
      "geometry": {
        "type": "Point",
        "coordinates": [
          46.12087,
          2.80787
        ]
      }
    },
    {
      "type": "Feature",
      "properties": {
        "partner": "WFP",
        "region": "Mudug",
        "district": "Galdogob",
        "Town_Village": "Bursaalax",
        "site_type": "TSFP",
        "": ""
      },
      "geometry": {
        "type": "Point",
        "coordinates": [
          47.24316,
          7.17457
        ]
      }
    },
    {
      "type": "Feature",
      "properties": {
        "partner": "WFP",
        "region": "Nugaal",
        "district": "Burtinle",
        "Town_Village": "Burtinle",
        "site_type": "MCHN",
        "": ""
      },
      "geometry": {
        "type": "Point",
        "coordinates": [
          47.83103,
          7.64157
        ]
      }
    },
    {
      "type": "Feature",
      "properties": {
        "partner": "WFP",
        "region": "Nugaal",
        "district": "Burtinle",
        "Town_Village": "Burtinle",
        "site_type": "TSFP",
        "": ""
      },
      "geometry": {
        "type": "Point",
        "coordinates": [
          47.83103,
          7.64157
        ]
      }
    },
    {
      "type": "Feature",
      "properties": {
        "partner": "WFP",
        "region": "Togdheer",
        "district": "Buuhoodle",
        "Town_Village": "Buuhoodle",
        "site_type": "MCHN",
        "": ""
      },
      "geometry": {
        "type": "Point",
        "coordinates": [
          46.315717,
          8.251603
        ]
      }
    },
    {
      "type": "Feature",
      "properties": {
        "partner": "WFP",
        "region": "Gedo",
        "district": "Doolow",
        "Town_Village": "Buulo Qalooc",
        "site_type": "TSFP",
        "": ""
      },
      "geometry": {
        "type": "Point",
        "coordinates": [
          42.12894,
          4.14908
        ]
      }
    },
    {
      "type": "Feature",
      "properties": {
        "partner": "WFP",
        "region": "Mudug",
        "district": "Xarardheere",
        "Town_Village": "Caad",
        "site_type": "TSFP",
        "": ""
      },
      "geometry": {
        "type": "Point",
        "coordinates": [
          47.982327,
          5.018489
        ]
      }
    },
    {
      "type": "Feature",
      "properties": {
        "partner": "WFP",
        "region": "Lower Shabelle",
        "district": "Afgooye",
        "Town_Village": "Caanoole",
        "site_type": "TSFP",
        "": ""
      },
      "geometry": {
        "type": "Point",
        "coordinates": [
          45.04023,
          2.13043
        ]
      }
    },
    {
      "type": "Feature",
      "properties": {
        "partner": "WFP",
        "region": "Banadir",
        "district": "Mogadishu/Cabdulcasiis",
        "Town_Village": "Cabdulcasiis",
        "site_type": "TSFP",
        "": ""
      },
      "geometry": {
        "type": "Point",
        "coordinates": [
          45.366582,
          2.045214
        ]
      }
    },
    {
      "type": "Feature",
      "properties": {
        "partner": "WFP",
        "region": "Galgaduud",
        "district": "Cabudwaaq",
        "Town_Village": "Cabudwaaq",
        "site_type": "TSFP",
        "": ""
      },
      "geometry": {
        "type": "Point",
        "coordinates": [
          47.2258,
          5.78938
        ]
      }
    },
    {
      "type": "Feature",
      "properties": {
        "partner": "WFP",
        "region": "Sanaag",
        "district": "Ceel Afweyn",
        "Town_Village": "Cadaadkulaale",
        "site_type": "TSFP",
        "": ""
      },
      "geometry": {
        "type": "Point",
        "coordinates": [
          46.821563,
          9.44617
        ]
      }
    },
    {
      "type": "Feature",
      "properties": {
        "partner": "WFP",
        "region": "Galgaduud",
        "district": "Cadaado",
        "Town_Village": "Cadaado",
        "site_type": "TSFP",
        "": ""
      },
      "geometry": {
        "type": "Point",
        "coordinates": [
          46.625464,
          6.131423
        ]
      }
    },
    {
      "type": "Feature",
      "properties": {
        "partner": "WFP",
        "region": "Middle Shabelle",
        "district": "Cadale",
        "Town_Village": "Cadale",
        "site_type": "TSFP",
        "": ""
      },
      "geometry": {
        "type": "Point",
        "coordinates": [
          46.319,
          2.7568
        ]
      }
    },
    {
      "type": "Feature",
      "properties": {
        "partner": "WFP",
        "region": "Togdheer",
        "district": "Burco",
        "Town_Village": "Cadow Yuurura",
        "site_type": "TSFP",
        "": ""
      },
      "geometry": {
        "type": "Point",
        "coordinates": [
          45.419693,
          9.268959
        ]
      }
    },
    {
      "type": "Feature",
      "properties": {
        "partner": "WFP",
        "region": "Togdheer",
        "district": "Sheikh",
        "Town_Village": "Cali Ciise",
        "site_type": "TSFP",
        "": ""
      },
      "geometry": {
        "type": "Point",
        "coordinates": [
          45.09706,
          9.92845
        ]
      }
    },
    {
      "type": "Feature",
      "properties": {
        "partner": "WFP",
        "region": "Togdheer",
        "district": "Burco",
        "Town_Village": "Cali Saahid",
        "site_type": "TSFP",
        "": ""
      },
      "geometry": {
        "type": "Point",
        "coordinates": [
          45.39495,
          9.115507
        ]
      }
    },
    {
      "type": "Feature",
      "properties": {
        "partner": "WFP",
        "region": "Galgaduud",
        "district": "Cabudwaaq",
        "Town_Village": "Cali-Xassan",
        "site_type": "TSFP",
        "": ""
      },
      "geometry": {
        "type": "Point",
        "coordinates": [
          45.69497,
          5.530568
        ]
      }
    },
    {
      "type": "Feature",
      "properties": {
        "partner": "WFP",
        "region": "Bari",
        "district": "Caluula",
        "Town_Village": "Caluula",
        "site_type": "TSFP",
        "": ""
      },
      "geometry": {
        "type": "Point",
        "coordinates": [
          50.75858,
          11.96039
        ]
      }
    },
    {
      "type": "Feature",
      "properties": {
        "partner": "WFP",
        "region": "Bari",
        "district": "Caluula",
        "Town_Village": "Caluula",
        "site_type": "MCHN",
        "": ""
      },
      "geometry": {
        "type": "Point",
        "coordinates": [
          50.75858,
          11.96039
        ]
      }
    },
    {
      "type": "Feature",
      "properties": {
        "partner": "WFP",
        "region": "Mudug",
        "district": "Xarardheere",
        "Town_Village": "Camaara",
        "site_type": "TSFP",
        "": ""
      },
      "geometry": {
        "type": "Point",
        "coordinates": [
          47.42506,
          6.77396
        ]
      }
    },
    {
      "type": "Feature",
      "properties": {
        "partner": "WFP",
        "region": "Mudug",
        "district": "Gaalkacyo",
        "Town_Village": "Carfuuda",
        "site_type": "TSFP",
        "": ""
      },
      "geometry": {
        "type": "Point",
        "coordinates": [
          47.58737,
          6.62902
        ]
      }
    },
    {
      "type": "Feature",
      "properties": {
        "partner": "WFP",
        "region": "Bari",
        "district": "Bossaso",
        "Town_Village": "Carmo",
        "site_type": "TSFP",
        "": ""
      },
      "geometry": {
        "type": "Point",
        "coordinates": [
          49.0609,
          10.5665
        ]
      }
    },
    {
      "type": "Feature",
      "properties": {
        "partner": "WFP",
        "region": "Bari",
        "district": "Bossaso",
        "Town_Village": "Carmo",
        "site_type": "MCHN",
        "": ""
      },
      "geometry": {
        "type": "Point",
        "coordinates": [
          49.0609,
          10.5665
        ]
      }
    },
    {
      "type": "Feature",
      "properties": {
        "partner": "WFP",
        "region": "Sanaag",
        "district": "Laasqoray",
        "Town_Village": "Cawsane ",
        "site_type": "TSFP",
        "": ""
      },
      "geometry": {
        "type": "Point",
        "coordinates": [
          48.80722,
          10.58288
        ]
      }
    },
    {
      "type": "Feature",
      "properties": {
        "partner": "WFP",
        "region": "Togdheer",
        "district": "Buuhoodle",
        "Town_Village": "Ceegaag",
        "site_type": "MCHN",
        "": ""
      },
      "geometry": {
        "type": "Point",
        "coordinates": [
          46.49813,
          8.62001
        ]
      }
    },
    {
      "type": "Feature",
      "properties": {
        "partner": "WFP",
        "region": "Togdheer",
        "district": "Buuhoodle",
        "Town_Village": "Ceegaag",
        "site_type": "TSFP",
        "": ""
      },
      "geometry": {
        "type": "Point",
        "coordinates": [
          46.49813,
          8.62001
        ]
      }
    },
    {
      "type": "Feature",
      "properties": {
        "partner": "WFP",
        "region": "Lower Shabelle",
        "district": "Marka",
        "Town_Village": "Ceel Ahmed",
        "site_type": "TSFP",
        "": ""
      },
      "geometry": {
        "type": "Point",
        "coordinates": [
          44.63636,
          1.62205
        ]
      }
    },
    {
      "type": "Feature",
      "properties": {
        "partner": "WFP",
        "region": "Nugaal",
        "district": "Garowe",
        "Town_Village": "Ceel Buh",
        "site_type": "TSFP",
        "": ""
      },
      "geometry": {
        "type": "Point",
        "coordinates": [
          49.23222,
          8.56194
        ]
      }
    },
    {
      "type": "Feature",
      "properties": {
        "partner": "WFP",
        "region": "Mudug",
        "district": "Xarardheere",
        "Town_Village": "Ceel Dheere",
        "site_type": "TSFP",
        "": ""
      },
      "geometry": {
        "type": "Point",
        "coordinates": [
          47.791039,
          4.67996
        ]
      }
    },
    {
      "type": "Feature",
      "properties": {
        "partner": "WFP",
        "region": "Galgaduud",
        "district": "Dhuusamarreeb",
        "Town_Village": "Ceel Dheere",
        "site_type": "TSFP",
        "": ""
      },
      "geometry": {
        "type": "Point",
        "coordinates": [
          46.19675,
          5.36098
        ]
      }
    },
    {
      "type": "Feature",
      "properties": {
        "partner": "WFP",
        "region": "Sanaag",
        "district": "Ceerigaabo",
        "Town_Village": "Ceel Dibir",
        "site_type": "TSFP",
        "": ""
      },
      "geometry": {
        "type": "Point",
        "coordinates": [
          47.284019,
          10.906645
        ]
      }
    },
    {
      "type": "Feature",
      "properties": {
        "partner": "WFP",
        "region": "Middle Shabelle",
        "district": "Balcad",
        "Town_Village": "Ceel Macaan",
        "site_type": "TSFP",
        "": ""
      },
      "geometry": {
        "type": "Point",
        "coordinates": [
          45.691669,
          2.24444
        ]
      }
    },
    {
      "type": "Feature",
      "properties": {
        "partner": "WFP",
        "region": "Gedo",
        "district": "Ceel Waaq",
        "Town_Village": "Ceel Waaq",
        "site_type": "TSFP",
        "": ""
      },
      "geometry": {
        "type": "Point",
        "coordinates": [
          40.998291,
          2.78767
        ]
      }
    },
    {
      "type": "Feature",
      "properties": {
        "partner": "WFP",
        "region": "Lower Shabelle",
        "district": "Marka",
        "Town_Village": "Ceel Waregow",
        "site_type": "TSFP",
        "": ""
      },
      "geometry": {
        "type": "Point",
        "coordinates": [
          44.79943,
          1.80873
        ]
      }
    },
    {
      "type": "Feature",
      "properties": {
        "partner": "WFP",
        "region": "Sanaag",
        "district": "Ceerigaabo",
        "Town_Village": "Ceel-Buh",
        "site_type": "MCHN",
        "": ""
      },
      "geometry": {
        "type": "Point",
        "coordinates": [
          48.30988,
          10.22551
        ]
      }
    },
    {
      "type": "Feature",
      "properties": {
        "partner": "WFP",
        "region": "Sanaag",
        "district": "Ceerigaabo",
        "Town_Village": "Ceel-Buh",
        "site_type": "TSFP",
        "": ""
      },
      "geometry": {
        "type": "Point",
        "coordinates": [
          48.30988,
          10.22551
        ]
      }
    },
    {
      "type": "Feature",
      "properties": {
        "partner": "WFP",
        "region": "Lower Shabelle",
        "district": "Marka",
        "Town_Village": "Ceel-Caddow",
        "site_type": "TSFP",
        "": ""
      },
      "geometry": {
        "type": "Point",
        "coordinates": [
          44.70452,
          1.67215
        ]
      }
    },
    {
      "type": "Feature",
      "properties": {
        "partner": "WFP",
        "region": "Sanaag",
        "district": "Ceel Afweyn",
        "Town_Village": "Ceelcade",
        "site_type": "TSFP",
        "": ""
      },
      "geometry": {
        "type": "Point",
        "coordinates": [
          46.603849,
          9.808085
        ]
      }
    },
    {
      "type": "Feature",
      "properties": {
        "partner": "WFP",
        "region": "Sool",
        "district": "Caynabo",
        "Town_Village": "Ceel-Dhaab",
        "site_type": "TSFP",
        "": ""
      },
      "geometry": {
        "type": "Point",
        "coordinates": [
          46.4979,
          8.93733
        ]
      }
    },
    {
      "type": "Feature",
      "properties": {
        "partner": "WFP",
        "region": "Mudug",
        "district": "Hobyo",
        "Town_Village": "Ceel-Dibir",
        "site_type": "TSFP",
        "": ""
      },
      "geometry": {
        "type": "Point",
        "coordinates": [
          47.70297,
          5.78645
        ]
      }
    },
    {
      "type": "Feature",
      "properties": {
        "partner": "WFP",
        "region": "Mudug",
        "district": "Hobyo",
        "Town_Village": "Ceelguula",
        "site_type": "TSFP",
        "": ""
      },
      "geometry": {
        "type": "Point",
        "coordinates": [
          48.68535,
          6.17852
        ]
      }
    },
    {
      "type": "Feature",
      "properties": {
        "partner": "WFP",
        "region": "Mudug",
        "district": "Xarardheere",
        "Town_Village": "Ceel-Huur",
        "site_type": "MCHN",
        "": ""
      },
      "geometry": {
        "type": "Point",
        "coordinates": [
          46.83336667,
          5.668716667
        ]
      }
    },
    {
      "type": "Feature",
      "properties": {
        "partner": "WFP",
        "region": "Lower Shabelle",
        "district": "Marka",
        "Town_Village": "Ceel-Jaale",
        "site_type": "TSFP",
        "": ""
      },
      "geometry": {
        "type": "Point",
        "coordinates": [
          44.72268,
          1.6804
        ]
      }
    },
    {
      "type": "Feature",
      "properties": {
        "partner": "WFP",
        "region": "Middle Shabelle",
        "district": "Balcad",
        "Town_Village": "Ceelow",
        "site_type": "TSFP",
        "": ""
      },
      "geometry": {
        "type": "Point",
        "coordinates": [
          45.63871,
          2.29702
        ]
      }
    },
    {
      "type": "Feature",
      "properties": {
        "partner": "WFP",
        "region": "Nugaal",
        "district": "Burtinle",
        "Town_Village": "Ceelweyne",
        "site_type": "TSFP",
        "": ""
      },
      "geometry": {
        "type": "Point",
        "coordinates": [
          48.62122,
          7.74121
        ]
      }
    },
    {
      "type": "Feature",
      "properties": {
        "partner": "WFP",
        "region": "Mudug",
        "district": "Gaalkacyo",
        "Town_Village": "Cel Akhwan",
        "site_type": "TSFP",
        "": ""
      },
      "geometry": {
        "type": "Point",
        "coordinates": [
          47.380367,
          6.693168
        ]
      }
    },
    {
      "type": "Feature",
      "properties": {
        "partner": "WFP",
        "region": "Mudug",
        "district": "Gaalkacyo",
        "Town_Village": "Cel Akhwan",
        "site_type": "TSFP",
        "": ""
      },
      "geometry": {
        "type": "Point",
        "coordinates": [
          47.377357,
          6.691801
        ]
      }
    },
    {
      "type": "Feature",
      "properties": {
        "partner": "WFP",
        "region": "Sanaag",
        "district": "Ceel Afweyn",
        "Town_Village": "Celaya",
        "site_type": "TSFP",
        "": ""
      },
      "geometry": {
        "type": "Point",
        "coordinates": [
          47.2976,
          10.7691
        ]
      }
    },
    {
      "type": "Feature",
      "properties": {
        "partner": "WFP",
        "region": "Mudug",
        "district": "Jaribani",
        "Town_Village": "Cel-Xagar ",
        "site_type": "TSFP",
        "": ""
      },
      "geometry": {
        "type": "Point",
        "coordinates": [
          49.27849,
          7.4174
        ]
      }
    },
    {
      "type": "Feature",
      "properties": {
        "partner": "WFP",
        "region": "Sanaag",
        "district": "Ceerigaabo",
        "Town_Village": "Cirshiida Satellite",
        "site_type": "TSFP",
        "": ""
      },
      "geometry": {
        "type": "Point",
        "coordinates": [
          47.29122,
          10.88058
        ]
      }
    },
    {
      "type": "Feature",
      "properties": {
        "partner": "WFP",
        "region": "Hiraan",
        "district": "Belet Weyne",
        "Town_Village": "Coomaad",
        "site_type": "TSFP",
        "": ""
      },
      "geometry": {
        "type": "Point",
        "coordinates": [
          45.475515,
          5.004259
        ]
      }
    },
    {
      "type": "Feature",
      "properties": {
        "partner": "WFP",
        "region": "Hiraan",
        "district": "Belet Weyne",
        "Town_Village": "Coomaad",
        "site_type": "TSFP",
        "": ""
      },
      "geometry": {
        "type": "Point",
        "coordinates": [
          45.574916,
          4.833464
        ]
      }
    },
    {
      "type": "Feature",
      "properties": {
        "partner": "WFP",
        "region": "Lower Shabelle",
        "district": "Afgooye",
        "Town_Village": "Cumar-Beere",
        "site_type": "TSFP",
        "": ""
      },
      "geometry": {
        "type": "Point",
        "coordinates": [
          45.05582,
          2.19852
        ]
      }
    },
    {
      "type": "Feature",
      "properties": {
        "partner": "WFP",
        "region": "Nugaal",
        "district": "Garowe",
        "Town_Village": "Cuun",
        "site_type": "TSFP",
        "": ""
      },
      "geometry": {
        "type": "Point",
        "coordinates": [
          48.89346,
          8.81879
        ]
      }
    },
    {
      "type": "Feature",
      "properties": {
        "partner": "WFP",
        "region": "Mudug",
        "district": "Xarardheere",
        "Town_Village": "Dabagalo",
        "site_type": "TSFP",
        "": ""
      },
      "geometry": {
        "type": "Point",
        "coordinates": [
          47.66523,
          4.9217
        ]
      }
    },
    {
      "type": "Feature",
      "properties": {
        "partner": "WFP",
        "region": "Galgaduud",
        "district": "Dhuusamarreeb",
        "Town_Village": "Dabare",
        "site_type": "TSFP",
        "": ""
      },
      "geometry": {
        "type": "Point",
        "coordinates": [
          45.91851,
          5.18907
        ]
      }
    },
    {
      "type": "Feature",
      "properties": {
        "partner": "WFP",
        "region": "Sanaag",
        "district": "Ceerigaabo",
        "Town_Village": "Damala Xagarre",
        "site_type": "TSFP",
        "": ""
      },
      "geometry": {
        "type": "Point",
        "coordinates": [
          47.941937,
          9.928091
        ]
      }
    },
    {
      "type": "Feature",
      "properties": {
        "partner": "WFP",
        "region": "Lower Shabelle",
        "district": "Afgooye",
        "Town_Village": "Dameerale",
        "site_type": "TSFP",
        "": ""
      },
      "geometry": {
        "type": "Point",
        "coordinates": [
          45.131199,
          2.25019
        ]
      }
    },
    {
      "type": "Feature",
      "properties": {
        "partner": "WFP",
        "region": "Sanaag",
        "district": "Ceerigaabo",
        "Town_Village": "Darar Weyne",
        "site_type": "TSFP",
        "": ""
      },
      "geometry": {
        "type": "Point",
        "coordinates": [
          47.528218,
          9.756344
        ]
      }
    },
    {
      "type": "Feature",
      "properties": {
        "partner": "WFP",
        "region": "Bay",
        "district": "Baidoa",
        "Town_Village": "Darusalam",
        "site_type": "TSFP",
        "": ""
      },
      "geometry": {
        "type": "Point",
        "coordinates": [
          43.662952,
          3.117954
        ]
      }
    },
    {
      "type": "Feature",
      "properties": {
        "partner": "WFP",
        "region": "Lower Shabelle",
        "district": "Wanla Weyn",
        "Town_Village": "Dawanle",
        "site_type": "TSFP",
        "": ""
      },
      "geometry": {
        "type": "Point",
        "coordinates": [
          44.88197,
          2.54202
        ]
      }
    },
    {
      "type": "Feature",
      "properties": {
        "partner": "WFP",
        "region": "Galgaduud",
        "district": "Cabudwaaq",
        "Town_Village": "Dayaan IDP",
        "site_type": "TSFP",
        "": ""
      },
      "geometry": {
        "type": "Point",
        "coordinates": [
          46.241311,
          6.222766
        ]
      }
    },
    {
      "type": "Feature",
      "properties": {
        "partner": "WFP",
        "region": "Banadir",
        "district": "Mogadishu/Dharkenley",
        "Town_Village": "Daynile",
        "site_type": "MCHN",
        "": ""
      },
      "geometry": {
        "type": "Point",
        "coordinates": [
          45.282212,
          2.044172
        ]
      }
    },
    {
      "type": "Feature",
      "properties": {
        "partner": "WFP",
        "region": "Banadir",
        "district": "Mogadishu/Daynile",
        "Town_Village": "Daynile",
        "site_type": "TSFP",
        "": ""
      },
      "geometry": {
        "type": "Point",
        "coordinates": [
          45.28548333,
          2.056752778
        ]
      }
    },
    {
      "type": "Feature",
      "properties": {
        "partner": "WFP",
        "region": "Banadir",
        "district": "Mogadishu/Daynile",
        "Town_Village": "Daynile",
        "site_type": "MCHN",
        "": ""
      },
      "geometry": {
        "type": "Point",
        "coordinates": [
          45.28548333,
          2.056752778
        ]
      }
    },
    {
      "type": "Feature",
      "properties": {
        "partner": "WFP",
        "region": "Bay",
        "district": "Baidoa",
        "Town_Village": "Daynuunay",
        "site_type": "TSFP",
        "": ""
      },
      "geometry": {
        "type": "Point",
        "coordinates": [
          43.796879,
          3.03985
        ]
      }
    },
    {
      "type": "Feature",
      "properties": {
        "partner": "WFP",
        "region": "Mudug",
        "district": "Gaalkacyo",
        "Town_Village": "Deeqlo",
        "site_type": "TSFP",
        "": ""
      },
      "geometry": {
        "type": "Point",
        "coordinates": [
          46.668085,
          6.607286
        ]
      }
    },
    {
      "type": "Feature",
      "properties": {
        "partner": "WFP",
        "region": "Bari",
        "district": "Qandala",
        "Town_Village": "Dhaadaar",
        "site_type": "MCHN",
        "": ""
      },
      "geometry": {
        "type": "Point",
        "coordinates": [
          49.875561,
          11.12806
        ]
      }
    },
    {
      "type": "Feature",
      "properties": {
        "partner": "WFP",
        "region": "Galgaduud",
        "district": "Cabudwaaq",
        "Town_Village": "Dhabad",
        "site_type": "TSFP",
        "": ""
      },
      "geometry": {
        "type": "Point",
        "coordinates": [
          46.43626,
          6.15527
        ]
      }
    },
    {
      "type": "Feature",
      "properties": {
        "partner": "WFP",
        "region": "Middle Shabelle",
        "district": "Balcad",
        "Town_Village": "Dhagaxow",
        "site_type": "TSFP",
        "": ""
      },
      "geometry": {
        "type": "Point",
        "coordinates": [
          45.48444,
          2.5265
        ]
      }
    },
    {
      "type": "Feature",
      "properties": {
        "partner": "WFP",
        "region": "Sanaag",
        "district": "Laasqoray",
        "Town_Village": "Dhahar",
        "site_type": "MCHN",
        "": ""
      },
      "geometry": {
        "type": "Point",
        "coordinates": [
          48.81988,
          9.74799
        ]
      }
    },
    {
      "type": "Feature",
      "properties": {
        "partner": "WFP",
        "region": "Sanaag",
        "district": "Laasqoray",
        "Town_Village": "Dhahar ",
        "site_type": "TSFP",
        "": ""
      },
      "geometry": {
        "type": "Point",
        "coordinates": [
          48.81988,
          9.74799
        ]
      }
    },
    {
      "type": "Feature",
      "properties": {
        "partner": "WFP",
        "region": "Togdheer",
        "district": "Buuhoodle",
        "Town_Village": "Dhallaamo Cune",
        "site_type": "TSFP",
        "": ""
      },
      "geometry": {
        "type": "Point",
        "coordinates": [
          46.621676,
          8.375667
        ]
      }
    },
    {
      "type": "Feature",
      "properties": {
        "partner": "WFP",
        "region": "Mudug",
        "district": "Xarardheere",
        "Town_Village": "Dhalwo",
        "site_type": "TSFP",
        "": ""
      },
      "geometry": {
        "type": "Point",
        "coordinates": [
          47.56813,
          4.5612
        ]
      }
    },
    {
      "type": "Feature",
      "properties": {
        "partner": "WFP",
        "region": "Nugaal",
        "district": "Eyl",
        "Town_Village": "Dhanaane",
        "site_type": "TSFP",
        "": ""
      },
      "geometry": {
        "type": "Point",
        "coordinates": [
          49.747431,
          7.596085
        ]
      }
    },
    {
      "type": "Feature",
      "properties": {
        "partner": "WFP",
        "region": "Gedo",
        "district": "Ceel Waaq",
        "Town_Village": "Dharkendoka",
        "site_type": "TSFP",
        "": ""
      },
      "geometry": {
        "type": "Point",
        "coordinates": [
          41.017622,
          2.768298
        ]
      }
    },
    {
      "type": "Feature",
      "properties": {
        "partner": "WFP",
        "region": "Banadir",
        "district": "Mogadishu/Dharkenley",
        "Town_Village": "Dharkenley",
        "site_type": "TSFP",
        "": ""
      },
      "geometry": {
        "type": "Point",
        "coordinates": [
          45.27461111,
          2.037852778
        ]
      }
    },
    {
      "type": "Feature",
      "properties": {
        "partner": "WFP",
        "region": "Nugaal",
        "district": "Eyl",
        "Town_Village": "Dhiganle",
        "site_type": "TSFP",
        "": ""
      },
      "geometry": {
        "type": "Point",
        "coordinates": [
          49.51149,
          7.83003
        ]
      }
    },
    {
      "type": "Feature",
      "properties": {
        "partner": "WFP",
        "region": "Nugaal",
        "district": "Eyl",
        "Town_Village": "Dhiganle",
        "site_type": "MCHN",
        "": ""
      },
      "geometry": {
        "type": "Point",
        "coordinates": [
          49.51149,
          7.83003
        ]
      }
    },
    {
      "type": "Feature",
      "properties": {
        "partner": "WFP",
        "region": "Togdheer",
        "district": "Buuhoodle",
        "Town_Village": "Dhilaalo",
        "site_type": "TSFP",
        "": ""
      },
      "geometry": {
        "type": "Point",
        "coordinates": [
          46.464777,
          8.440799
        ]
      }
    },
    {
      "type": "Feature",
      "properties": {
        "partner": "WFP",
        "region": "Lower Juba",
        "district": "Afmadow",
        "Town_Village": "Dhobley",
        "site_type": "TSFP",
        "": ""
      },
      "geometry": {
        "type": "Point",
        "coordinates": [
          41.01238,
          0.40627
        ]
      }
    },
    {
      "type": "Feature",
      "properties": {
        "partner": "WFP",
        "region": "Sanaag",
        "district": "Ceel Afweyn",
        "Town_Village": "Dhoomo",
        "site_type": "TSFP",
        "": ""
      },
      "geometry": {
        "type": "Point",
        "coordinates": [
          46.712569,
          9.815154
        ]
      }
    },
    {
      "type": "Feature",
      "properties": {
        "partner": "WFP",
        "region": "Bari",
        "district": "Qardho",
        "Town_Village": "Dhudhub",
        "site_type": "TSFP",
        "": ""
      },
      "geometry": {
        "type": "Point",
        "coordinates": [
          49.91697,
          9.22973
        ]
      }
    },
    {
      "type": "Feature",
      "properties": {
        "partner": "WFP",
        "region": "Gedo",
        "district": "Belet Xaawo",
        "Town_Village": "Dhuray ",
        "site_type": "TSFP",
        "": ""
      },
      "geometry": {
        "type": "Point",
        "coordinates": [
          41.890291,
          3.929268
        ]
      }
    },
    {
      "type": "Feature",
      "properties": {
        "partner": "WFP",
        "region": "Bari",
        "district": "Bandarbayla",
        "Town_Village": "Dhuudo",
        "site_type": "MCHN",
        "": ""
      },
      "geometry": {
        "type": "Point",
        "coordinates": [
          50.20782,
          9.32518
        ]
      }
    },
    {
      "type": "Feature",
      "properties": {
        "partner": "WFP",
        "region": "Bari",
        "district": "Bandarbayla",
        "Town_Village": "Dhuudo",
        "site_type": "TSFP",
        "": ""
      },
      "geometry": {
        "type": "Point",
        "coordinates": [
          50.20782,
          9.32518
        ]
      }
    },
    {
      "type": "Feature",
      "properties": {
        "partner": "WFP",
        "region": "Galgaduud",
        "district": "Dhuusamarreeb",
        "Town_Village": "Dhuusamarreeb",
        "site_type": "MCHN",
        "": ""
      },
      "geometry": {
        "type": "Point",
        "coordinates": [
          48.12112,
          5.42775
        ]
      }
    },
    {
      "type": "Feature",
      "properties": {
        "partner": "WFP",
        "region": "Galgaduud",
        "district": "Dhuusamarreeb",
        "Town_Village": "Dhuusamarreeb",
        "site_type": "TSFP",
        "": ""
      },
      "geometry": {
        "type": "Point",
        "coordinates": [
          46.386698,
          5.537643
        ]
      }
    },
    {
      "type": "Feature",
      "properties": {
        "partner": "WFP",
        "region": "Galgaduud",
        "district": "Dhuusamarreeb",
        "Town_Village": "Dhuusamarreeb",
        "site_type": "MCHN",
        "": ""
      },
      "geometry": {
        "type": "Point",
        "coordinates": [
          46.386698,
          5.537643
        ]
      }
    },
    {
      "type": "Feature",
      "properties": {
        "partner": "WFP",
        "region": "Lower Juba",
        "district": "Afmadow",
        "Town_Village": "Dibi",
        "site_type": "TSFP",
        "": ""
      },
      "geometry": {
        "type": "Point",
        "coordinates": [
          41.1217,
          0.5804
        ]
      }
    },
    {
      "type": "Feature",
      "properties": {
        "partner": "WFP",
        "region": "Lower Juba",
        "district": "Afmadow",
        "Town_Village": "Dif",
        "site_type": "TSFP",
        "": ""
      },
      "geometry": {
        "type": "Point",
        "coordinates": [
          41.06157,
          0.96249
        ]
      }
    },
    {
      "type": "Feature",
      "properties": {
        "partner": "WFP",
        "region": "Nugaal",
        "district": "Eyl",
        "Town_Village": "Dihlil",
        "site_type": "TSFP",
        "": ""
      },
      "geometry": {
        "type": "Point",
        "coordinates": [
          49.39727,
          7.98095
        ]
      }
    },
    {
      "type": "Feature",
      "properties": {
        "partner": "WFP",
        "region": "Galgaduud",
        "district": "Cabudwaaq",
        "Town_Village": "Diiriye Xassan",
        "site_type": "TSFP",
        "": ""
      },
      "geometry": {
        "type": "Point",
        "coordinates": [
          45.670616,
          5.541207
        ]
      }
    },
    {
      "type": "Feature",
      "properties": {
        "partner": "WFP",
        "region": "Nugaal",
        "district": "Eyl",
        "Town_Village": "Dilin Mahato",
        "site_type": "TSFP",
        "": ""
      },
      "geometry": {
        "type": "Point",
        "coordinates": [
          49.5762,
          8.25548
        ]
      }
    },
    {
      "type": "Feature",
      "properties": {
        "partner": "WFP",
        "region": "Mudug",
        "district": "Gaalkacyo",
        "Town_Village": "Docol",
        "site_type": "TSFP",
        "": ""
      },
      "geometry": {
        "type": "Point",
        "coordinates": [
          47.491112,
          6.432393
        ]
      }
    },
    {
      "type": "Feature",
      "properties": {
        "partner": "WFP",
        "region": "Mudug",
        "district": "Gaalkacyo",
        "Town_Village": "Docol",
        "site_type": "TSFP",
        "": ""
      },
      "geometry": {
        "type": "Point",
        "coordinates": [
          47.490921,
          6.431061
        ]
      }
    },
    {
      "type": "Feature",
      "properties": {
        "partner": "WFP",
        "region": "Mudug",
        "district": "Gaalkacyo",
        "Town_Village": "Docol",
        "site_type": "TSFP",
        "": ""
      },
      "geometry": {
        "type": "Point",
        "coordinates": [
          47.485873,
          6.434838
        ]
      }
    },
    {
      "type": "Feature",
      "properties": {
        "partner": "WFP",
        "region": "Mudug",
        "district": "Gaalkacyo",
        "Town_Village": "Docolle Farale",
        "site_type": "TSFP",
        "": ""
      },
      "geometry": {
        "type": "Point",
        "coordinates": [
          47.552374,
          6.67026
        ]
      }
    },
    {
      "type": "Feature",
      "properties": {
        "partner": "WFP",
        "region": "Mudug",
        "district": "Gaalkacyo",
        "Town_Village": "Docolle Farale",
        "site_type": "TSFP",
        "": ""
      },
      "geometry": {
        "type": "Point",
        "coordinates": [
          47.551763,
          6.66717
        ]
      }
    },
    {
      "type": "Feature",
      "properties": {
        "partner": "WFP",
        "region": "Sool",
        "district": "Xudun",
        "Town_Village": "Dogoble",
        "site_type": "TSFP",
        "": ""
      },
      "geometry": {
        "type": "Point",
        "coordinates": [
          47.46013,
          9.46057
        ]
      }
    },
    {
      "type": "Feature",
      "properties": {
        "partner": "WFP",
        "region": "Gedo",
        "district": "Doolow",
        "Town_Village": "Doolow",
        "site_type": "TSFP",
        "": ""
      },
      "geometry": {
        "type": "Point",
        "coordinates": [
          42.07617,
          4.16358
        ]
      }
    },
    {
      "type": "Feature",
      "properties": {
        "partner": "WFP",
        "region": "Gedo",
        "district": "Doolow",
        "Town_Village": "Doolow",
        "site_type": "MCHN",
        "": ""
      },
      "geometry": {
        "type": "Point",
        "coordinates": [
          42.078279,
          4.165309
        ]
      }
    },
    {
      "type": "Feature",
      "properties": {
        "partner": "WFP",
        "region": "Gedo",
        "district": "Doolow",
        "Town_Village": "Doolow",
        "site_type": "TSFP",
        "": ""
      },
      "geometry": {
        "type": "Point",
        "coordinates": [
          42.076443,
          4.162568
        ]
      }
    },
    {
      "type": "Feature",
      "properties": {
        "partner": "WFP",
        "region": "Lower Shabelle",
        "district": "Afgooye",
        "Town_Village": "Doonka Weynow",
        "site_type": "TSFP",
        "": ""
      },
      "geometry": {
        "type": "Point",
        "coordinates": [
          45.112932,
          2.252142
        ]
      }
    },
    {
      "type": "Feature",
      "properties": {
        "partner": "WFP",
        "region": "Nugaal",
        "district": "Garowe",
        "Town_Village": "Dudumaale",
        "site_type": "TSFP",
        "": ""
      },
      "geometry": {
        "type": "Point",
        "coordinates": [
          48.776269,
          8.143998
        ]
      }
    },
    {
      "type": "Feature",
      "properties": {
        "partner": "WFP",
        "region": "Lower Shabelle",
        "district": "Wanla Weyn",
        "Town_Village": "Dudumay",
        "site_type": "TSFP",
        "": ""
      },
      "geometry": {
        "type": "Point",
        "coordinates": [
          44.79823,
          2.57837
        ]
      }
    },
    {
      "type": "Feature",
      "properties": {
        "partner": "WFP",
        "region": "Mudug",
        "district": "Xarardheere",
        "Town_Village": "Dumaaye",
        "site_type": "TSFP",
        "": ""
      },
      "geometry": {
        "type": "Point",
        "coordinates": [
          47.992194,
          5.010299
        ]
      }
    },
    {
      "type": "Feature",
      "properties": {
        "partner": "WFP",
        "region": "Sanaag",
        "district": "Laasqoray",
        "Town_Village": "Dur-Duri",
        "site_type": "TSFP",
        "": ""
      },
      "geometry": {
        "type": "Point",
        "coordinates": [
          48.58537,
          11.29662
        ]
      }
    },
    {
      "type": "Feature",
      "properties": {
        "partner": "WFP",
        "region": "Gedo",
        "district": "Ceel Waaq",
        "Town_Village": "El Banda",
        "site_type": "TSFP",
        "": ""
      },
      "geometry": {
        "type": "Point",
        "coordinates": [
          40.9951,
          2.77299
        ]
      }
    },
    {
      "type": "Feature",
      "properties": {
        "partner": "WFP",
        "region": "Bakool",
        "district": "Waajid",
        "Town_Village": "EX ACF Compound",
        "site_type": "TSFP",
        "": ""
      },
      "geometry": {
        "type": "Point",
        "coordinates": [
          42.546912,
          3.805045
        ]
      }
    },
    {
      "type": "Feature",
      "properties": {
        "partner": "WFP",
        "region": "Sanaag",
        "district": "Ceel Afweyn",
        "Town_Village": "Fadhi Gaab",
        "site_type": "TSFP",
        "": ""
      },
      "geometry": {
        "type": "Point",
        "coordinates": [
          47.014348,
          9.666649
        ]
      }
    },
    {
      "type": "Feature",
      "properties": {
        "partner": "WFP",
        "region": "Sool",
        "district": "Caynabo",
        "Town_Village": "Fadhiyar",
        "site_type": "TSFP",
        "": ""
      },
      "geometry": {
        "type": "Point",
        "coordinates": [
          46.7799,
          9.0193
        ]
      }
    },
    {
      "type": "Feature",
      "properties": {
        "partner": "WFP",
        "region": "Lower Juba",
        "district": "Kismayo",
        "Town_Village": "Far Janne",
        "site_type": "TSFP",
        "": ""
      },
      "geometry": {
        "type": "Point",
        "coordinates": [
          42.535579,
          -0.363901
        ]
      }
    },
    {
      "type": "Feature",
      "properties": {
        "partner": "WFP",
        "region": "Galgaduud",
        "district": "Dhuusamarreeb",
        "Town_Village": "Faragoo",
        "site_type": "TSFP",
        "": ""
      },
      "geometry": {
        "type": "Point",
        "coordinates": [
          46.524527,
          5.466401
        ]
      }
    },
    {
      "type": "Feature",
      "properties": {
        "partner": "WFP",
        "region": "Nugaal",
        "district": "Burtinle",
        "Town_Village": "Faratooyo",
        "site_type": "TSFP",
        "": ""
      },
      "geometry": {
        "type": "Point",
        "coordinates": [
          47.81277,
          7.53474
        ]
      }
    },
    {
      "type": "Feature",
      "properties": {
        "partner": "WFP",
        "region": "Hiraan",
        "district": "Belet Weyne",
        "Town_Village": "Farlibaax",
        "site_type": "TSFP",
        "": ""
      },
      "geometry": {
        "type": "Point",
        "coordinates": [
          44.86873,
          4.87458
        ]
      }
    },
    {
      "type": "Feature",
      "properties": {
        "partner": "WFP",
        "region": "Mudug",
        "district": "Gaalkacyo",
        "Town_Village": "Gaalkacyo",
        "site_type": "MCHN",
        "": ""
      },
      "geometry": {
        "type": "Point",
        "coordinates": [
          48.26205,
          5.00277
        ]
      }
    },
    {
      "type": "Feature",
      "properties": {
        "partner": "WFP",
        "region": "Mudug",
        "district": "Gaalkacyo",
        "Town_Village": "Gaalkacyo/Garsoor, Horumar",
        "site_type": "TSFP",
        "": ""
      },
      "geometry": {
        "type": "Point",
        "coordinates": [
          46.668085,
          6.607286
        ]
      }
    },
    {
      "type": "Feature",
      "properties": {
        "partner": "WFP",
        "region": "Mudug",
        "district": "Gaalkacyo",
        "Town_Village": "Gaalkacyo/Garsoor, Horumar",
        "site_type": "TSFP",
        "": ""
      },
      "geometry": {
        "type": "Point",
        "coordinates": [
          6.84985,
          47.41385
        ]
      }
    },
    {
      "type": "Feature",
      "properties": {
        "partner": "WFP",
        "region": "Mudug",
        "district": "Gaalkacyo",
        "Town_Village": "Gaarcad",
        "site_type": "TSFP",
        "": ""
      },
      "geometry": {
        "type": "Point",
        "coordinates": [
          47.364967,
          6.639777
        ]
      }
    },
    {
      "type": "Feature",
      "properties": {
        "partner": "WFP",
        "region": "Galgaduud",
        "district": "Dhuusamarreeb",
        "Town_Village": "Gadoon",
        "site_type": "TSFP",
        "": ""
      },
      "geometry": {
        "type": "Point",
        "coordinates": [
          46.683252,
          5.68118
        ]
      }
    },
    {
      "type": "Feature",
      "properties": {
        "partner": "WFP",
        "region": "Mudug",
        "district": "Galdogob",
        "Town_Village": "Galdogob",
        "site_type": "TSFP",
        "": ""
      },
      "geometry": {
        "type": "Point",
        "coordinates": [
          47.13494,
          7.05755
        ]
      }
    },
    {
      "type": "Feature",
      "properties": {
        "partner": "WFP",
        "region": "Galgaduud",
        "district": "Cadaado",
        "Town_Village": "Galinsoor",
        "site_type": "TSFP",
        "": ""
      },
      "geometry": {
        "type": "Point",
        "coordinates": [
          46.70553,
          6.42639
        ]
      }
    },
    {
      "type": "Feature",
      "properties": {
        "partner": "WFP",
        "region": "Sool",
        "district": "Laas Caanood",
        "Town_Village": "Gambade",
        "site_type": "TSFP",
        "": ""
      },
      "geometry": {
        "type": "Point",
        "coordinates": [
          47.483103,
          8.542969
        ]
      }
    },
    {
      "type": "Feature",
      "properties": {
        "partner": "WFP",
        "region": "Hiraan",
        "district": "Belet Weyne",
        "Town_Village": "Ganuribad",
        "site_type": "TSFP",
        "": ""
      },
      "geometry": {
        "type": "Point",
        "coordinates": [
          45.209487,
          4.732469
        ]
      }
    },
    {
      "type": "Feature",
      "properties": {
        "partner": "WFP",
        "region": "Middle Shabelle",
        "district": "Cadale",
        "Town_Village": "Garas-Weyne",
        "site_type": "TSFP",
        "": ""
      },
      "geometry": {
        "type": "Point",
        "coordinates": [
          46.19258,
          2.90082
        ]
      }
    },
    {
      "type": "Feature",
      "properties": {
        "partner": "WFP",
        "region": "Mudug",
        "district": "Jaribani",
        "Town_Village": "Garcad",
        "site_type": "MCHN",
        "": ""
      },
      "geometry": {
        "type": "Point",
        "coordinates": [
          49.32653,
          6.94468
        ]
      }
    },
    {
      "type": "Feature",
      "properties": {
        "partner": "WFP",
        "region": "Mudug",
        "district": "Jaribani",
        "Town_Village": "Garcad",
        "site_type": "TSFP",
        "": ""
      },
      "geometry": {
        "type": "Point",
        "coordinates": [
          49.32653,
          6.94468
        ]
      }
    },
    {
      "type": "Feature",
      "properties": {
        "partner": "WFP",
        "region": "Nugaal",
        "district": "Garowe",
        "Town_Village": "Gargaar MCH",
        "site_type": "TSFP",
        "": ""
      },
      "geometry": {
        "type": "Point",
        "coordinates": [
          48.49917,
          8.417471
        ]
      }
    },
    {
      "type": "Feature",
      "properties": {
        "partner": "WFP",
        "region": "Nugaal",
        "district": "Garowe",
        "Town_Village": "Garowe/Waberi",
        "site_type": "TSFP",
        "": ""
      },
      "geometry": {
        "type": "Point",
        "coordinates": [
          48.49092,
          8.40088
        ]
      }
    },
    {
      "type": "Feature",
      "properties": {
        "partner": "WFP",
        "region": "Nugaal",
        "district": "Garowe",
        "Town_Village": "Garowe/Waberi",
        "site_type": "MCHN",
        "": ""
      },
      "geometry": {
        "type": "Point",
        "coordinates": [
          48.49092,
          8.40088
        ]
      }
    },
    {
      "type": "Feature",
      "properties": {
        "partner": "WFP",
        "region": "Gedo",
        "district": "Luuq",
        "Town_Village": "Garsoow",
        "site_type": "TSFP",
        "": ""
      },
      "geometry": {
        "type": "Point",
        "coordinates": [
          42.48916,
          3.82905
        ]
      }
    },
    {
      "type": "Feature",
      "properties": {
        "partner": "WFP",
        "region": "Mudug",
        "district": "Hobyo",
        "Town_Village": "Gawaan",
        "site_type": "TSFP",
        "": ""
      },
      "geometry": {
        "type": "Point",
        "coordinates": [
          47.85248,
          6.01175
        ]
      }
    },
    {
      "type": "Feature",
      "properties": {
        "partner": "WFP",
        "region": "Gedo",
        "district": "Belet Xaawo",
        "Town_Village": "Gawiido",
        "site_type": "TSFP",
        "": ""
      },
      "geometry": {
        "type": "Point",
        "coordinates": [
          41.925,
          3.987
        ]
      }
    },
    {
      "type": "Feature",
      "properties": {
        "partner": "WFP",
        "region": "Gedo",
        "district": "Doolow",
        "Town_Village": "Geed Weyne Sectin",
        "site_type": "TSFP",
        "": ""
      },
      "geometry": {
        "type": "Point",
        "coordinates": [
          42.29415,
          4.0302
        ]
      }
    },
    {
      "type": "Feature",
      "properties": {
        "partner": "WFP",
        "region": "Gedo",
        "district": "Luuq",
        "Town_Village": "Geer Boolow",
        "site_type": "TSFP",
        "": ""
      },
      "geometry": {
        "type": "Point",
        "coordinates": [
          42.51267,
          3.91147
        ]
      }
    },
    {
      "type": "Feature",
      "properties": {
        "partner": "WFP",
        "region": "Lower Shabelle",
        "district": "Marka",
        "Town_Village": "Gendershe",
        "site_type": "TSFP",
        "": ""
      },
      "geometry": {
        "type": "Point",
        "coordinates": [
          44.90675,
          1.83308
        ]
      }
    },
    {
      "type": "Feature",
      "properties": {
        "partner": "WFP",
        "region": "Nugaal",
        "district": "Eyl",
        "Town_Village": "Godob Addon",
        "site_type": "TSFP",
        "": ""
      },
      "geometry": {
        "type": "Point",
        "coordinates": [
          49.528099,
          7.6693
        ]
      }
    },
    {
      "type": "Feature",
      "properties": {
        "partner": "WFP",
        "region": "Nugaal",
        "district": "Burtinle",
        "Town_Village": "Godob Jiraan",
        "site_type": "TSFP",
        "": ""
      },
      "geometry": {
        "type": "Point",
        "coordinates": [
          47.783699,
          7.6415
        ]
      }
    },
    {
      "type": "Feature",
      "properties": {
        "partner": "WFP",
        "region": "Nugaal",
        "district": "Burtinle",
        "Town_Village": "Godobyar",
        "site_type": "TSFP",
        "": ""
      },
      "geometry": {
        "type": "Point",
        "coordinates": [
          47.66395,
          7.72006
        ]
      }
    },
    {
      "type": "Feature",
      "properties": {
        "partner": "WFP",
        "region": "Banadir",
        "district": "Mogadishu/Boondheere",
        "Town_Village": "Gololey",
        "site_type": "TSFP",
        "": ""
      },
      "geometry": {
        "type": "Point",
        "coordinates": [
          45.35333,
          2.44949
        ]
      }
    },
    {
      "type": "Feature",
      "properties": {
        "partner": "WFP",
        "region": "Middle Shabelle",
        "district": "Balcad",
        "Town_Village": "Gololey",
        "site_type": "TSFP",
        "": ""
      },
      "geometry": {
        "type": "Point",
        "coordinates": [
          45.35333,
          2.44949
        ]
      }
    },
    {
      "type": "Feature",
      "properties": {
        "partner": "WFP",
        "region": "Hiraan",
        "district": "Belet Weyne",
        "Town_Village": "Goobo",
        "site_type": "TSFP",
        "": ""
      },
      "geometry": {
        "type": "Point",
        "coordinates": [
          46.05642,
          4.49898
        ]
      }
    },
    {
      "type": "Feature",
      "properties": {
        "partner": "WFP",
        "region": "Galgaduud",
        "district": "Cabudwaaq",
        "Town_Village": "Goodwiil",
        "site_type": "TSFP",
        "": ""
      },
      "geometry": {
        "type": "Point",
        "coordinates": [
          45.948984,
          5.436598
        ]
      }
    },
    {
      "type": "Feature",
      "properties": {
        "partner": "WFP",
        "region": "Bay",
        "district": "Baidoa",
        "Town_Village": "Goof-Gaduud-Shabelow 2",
        "site_type": "TSFP",
        "": ""
      },
      "geometry": {
        "type": "Point",
        "coordinates": [
          43.4752,
          2.95999
        ]
      }
    },
    {
      "type": "Feature",
      "properties": {
        "partner": "WFP",
        "region": "Bay",
        "district": "Baidoa",
        "Town_Village": "Goof-Mareere Weyn",
        "site_type": "TSFP",
        "": ""
      },
      "geometry": {
        "type": "Point",
        "coordinates": [
          43.4913,
          3.23801
        ]
      }
    },
    {
      "type": "Feature",
      "properties": {
        "partner": "WFP",
        "region": "Sanaag",
        "district": "Ceerigaabo",
        "Town_Village": "Gooraan",
        "site_type": "TSFP",
        "": ""
      },
      "geometry": {
        "type": "Point",
        "coordinates": [
          48.52977,
          10.07071
        ]
      }
    },
    {
      "type": "Feature",
      "properties": {
        "partner": "WFP",
        "region": "Togdheer",
        "district": "Burco",
        "Town_Village": "Goraya Xun Hoose",
        "site_type": "TSFP",
        "": ""
      },
      "geometry": {
        "type": "Point",
        "coordinates": [
          45.33088,
          8.61124
        ]
      }
    },
    {
      "type": "Feature",
      "properties": {
        "partner": "WFP",
        "region": "Togdheer",
        "district": "Burco",
        "Town_Village": "Goroyo Ood",
        "site_type": "TSFP",
        "": ""
      },
      "geometry": {
        "type": "Point",
        "coordinates": [
          45.28821,
          9.03494
        ]
      }
    },
    {
      "type": "Feature",
      "properties": {
        "partner": "WFP",
        "region": "Gedo",
        "district": "Doolow",
        "Town_Village": "Gubataay",
        "site_type": "TSFP",
        "": ""
      },
      "geometry": {
        "type": "Point",
        "coordinates": [
          42.21043,
          4.1345
        ]
      }
    },
    {
      "type": "Feature",
      "properties": {
        "partner": "WFP",
        "region": "Bari",
        "district": "Iskushuban",
        "Town_Village": "Gumbax",
        "site_type": "TSFP",
        "": ""
      },
      "geometry": {
        "type": "Point",
        "coordinates": [
          51.11405,
          10.88443
        ]
      }
    },
    {
      "type": "Feature",
      "properties": {
        "partner": "WFP",
        "region": "Galgaduud",
        "district": "Dhuusamarreeb",
        "Town_Village": "Guri-Ceel",
        "site_type": "TSFP",
        "": ""
      },
      "geometry": {
        "type": "Point",
        "coordinates": [
          45.87737,
          5.30825
        ]
      }
    },
    {
      "type": "Feature",
      "properties": {
        "partner": "WFP",
        "region": "Lower Shabelle",
        "district": "Wanla Weyn",
        "Town_Village": "Haakow",
        "site_type": "TSFP",
        "": ""
      },
      "geometry": {
        "type": "Point",
        "coordinates": [
          44.85708,
          2.58283
        ]
      }
    },
    {
      "type": "Feature",
      "properties": {
        "partner": "WFP",
        "region": "Sool",
        "district": "Caynabo",
        "Town_Village": "Habari Heshay",
        "site_type": "TSFP",
        "": ""
      },
      "geometry": {
        "type": "Point",
        "coordinates": [
          46.402417,
          8.840441
        ]
      }
    },
    {
      "type": "Feature",
      "properties": {
        "partner": "WFP",
        "region": "Sanaag",
        "district": "Ceerigaabo",
        "Town_Village": "Hadaaftimo",
        "site_type": "MCHN",
        "": ""
      },
      "geometry": {
        "type": "Point",
        "coordinates": [
          48.106833,
          10.766271
        ]
      }
    },
    {
      "type": "Feature",
      "properties": {
        "partner": "WFP",
        "region": "Sanaag",
        "district": "Ceerigaabo",
        "Town_Village": "Hadaaftimo",
        "site_type": "TSFP",
        "": ""
      },
      "geometry": {
        "type": "Point",
        "coordinates": [
          48.104239,
          10.764754
        ]
      }
    },
    {
      "type": "Feature",
      "properties": {
        "partner": "WFP",
        "region": "Mudug",
        "district": "Gaalkacyo",
        "Town_Village": "Halabokhad IDP",
        "site_type": "TSFP",
        "": ""
      },
      "geometry": {
        "type": "Point",
        "coordinates": [
          47.451092,
          6.802736
        ]
      }
    },
    {
      "type": "Feature",
      "properties": {
        "partner": "WFP",
        "region": "Sool",
        "district": "Taleex",
        "Town_Village": "Halin",
        "site_type": "TSFP",
        "": ""
      },
      "geometry": {
        "type": "Point",
        "coordinates": [
          48.62008,
          9.0857
        ]
      }
    },
    {
      "type": "Feature",
      "properties": {
        "partner": "WFP",
        "region": "Gedo",
        "district": "Belet Xaawo",
        "Town_Village": "Hananley MCH ",
        "site_type": "TSFP",
        "": ""
      },
      "geometry": {
        "type": "Point",
        "coordinates": [
          41.71228,
          3.63088
        ]
      }
    },
    {
      "type": "Feature",
      "properties": {
        "partner": "WFP",
        "region": "Bay",
        "district": "Baidoa",
        "Town_Village": "Hanano 2 (2) IDP",
        "site_type": "TSFP",
        "": ""
      },
      "geometry": {
        "type": "Point",
        "coordinates": [
          43.6589,
          3.12948
        ]
      }
    },
    {
      "type": "Feature",
      "properties": {
        "partner": "WFP",
        "region": "Togdheer",
        "district": "Burco",
        "Town_Village": "Harada Gubatoxil",
        "site_type": "TSFP",
        "": ""
      },
      "geometry": {
        "type": "Point",
        "coordinates": [
          45.465326,
          8.779055
        ]
      }
    },
    {
      "type": "Feature",
      "properties": {
        "partner": "WFP",
        "region": "Middle Shabelle",
        "district": "Balcad",
        "Town_Village": "Hawaay ",
        "site_type": "TSFP",
        "": ""
      },
      "geometry": {
        "type": "Point",
        "coordinates": [
          45.642454,
          2.206823
        ]
      }
    },
    {
      "type": "Feature",
      "properties": {
        "partner": "WFP",
        "region": "Bay",
        "district": "Baidoa",
        "Town_Village": "Hawanley",
        "site_type": "TSFP",
        "": ""
      },
      "geometry": {
        "type": "Point",
        "coordinates": [
          43.52802,
          3.241831
        ]
      }
    },
    {
      "type": "Feature",
      "properties": {
        "partner": "WFP",
        "region": "Bay",
        "district": "Baidoa",
        "Town_Village": "Haween",
        "site_type": "TSFP",
        "": ""
      },
      "geometry": {
        "type": "Point",
        "coordinates": [
          43.5443,
          3.25131
        ]
      }
    },
    {
      "type": "Feature",
      "properties": {
        "partner": "WFP",
        "region": "Nugaal",
        "district": "Burtinle",
        "Town_Village": "Hayanle",
        "site_type": "TSFP",
        "": ""
      },
      "geometry": {
        "type": "Point",
        "coordinates": [
          48.06493,
          7.90862
        ]
      }
    },
    {
      "type": "Feature",
      "properties": {
        "partner": "WFP",
        "region": "Lower Shabelle",
        "district": "Wanla Weyn",
        "Town_Village": "Heero",
        "site_type": "TSFP",
        "": ""
      },
      "geometry": {
        "type": "Point",
        "coordinates": [
          44.92908,
          2.64827
        ]
      }
    },
    {
      "type": "Feature",
      "properties": {
        "partner": "WFP",
        "region": "Banadir",
        "district": "Mogadishu/Heliwa",
        "Town_Village": "Heliwa",
        "site_type": "TSFP",
        "": ""
      },
      "geometry": {
        "type": "Point",
        "coordinates": [
          45.35321667,
          2.093388889
        ]
      }
    },
    {
      "type": "Feature",
      "properties": {
        "partner": "WFP",
        "region": "Banadir",
        "district": "Mogadishu/Heliwa",
        "Town_Village": "Heliwa",
        "site_type": "MCHN",
        "": ""
      },
      "geometry": {
        "type": "Point",
        "coordinates": [
          45.35321667,
          2.093388889
        ]
      }
    },
    {
      "type": "Feature",
      "properties": {
        "partner": "WFP",
        "region": "Sool",
        "district": "Taleex",
        "Town_Village": "Higlo Ceelcowsle",
        "site_type": "TSFP",
        "": ""
      },
      "geometry": {
        "type": "Point",
        "coordinates": [
          48.85525,
          9.51979
        ]
      }
    },
    {
      "type": "Feature",
      "properties": {
        "partner": "WFP",
        "region": "Mudug",
        "district": "Hobyo",
        "Town_Village": "Hobyo",
        "site_type": "TSFP",
        "": ""
      },
      "geometry": {
        "type": "Point",
        "coordinates": [
          48.526654,
          5.353681
        ]
      }
    },
    {
      "type": "Feature",
      "properties": {
        "partner": "WFP",
        "region": "Banadir",
        "district": "Mogadishu/Hodan",
        "Town_Village": "Hodan",
        "site_type": "TSFP",
        "": ""
      },
      "geometry": {
        "type": "Point",
        "coordinates": [
          45.29537222,
          2.041611111
        ]
      }
    },
    {
      "type": "Feature",
      "properties": {
        "partner": "WFP",
        "region": "Bay",
        "district": "Baidoa",
        "Town_Village": "Horseed",
        "site_type": "TSFP",
        "": ""
      },
      "geometry": {
        "type": "Point",
        "coordinates": [
          43.199554,
          3.209623
        ]
      }
    },
    {
      "type": "Feature",
      "properties": {
        "partner": "WFP",
        "region": "Togdheer",
        "district": "Buuhoodle",
        "Town_Village": "Horufadhi",
        "site_type": "MCHN",
        "": ""
      },
      "geometry": {
        "type": "Point",
        "coordinates": [
          46.401865,
          8.579943
        ]
      }
    },
    {
      "type": "Feature",
      "properties": {
        "partner": "WFP",
        "region": "Bay",
        "district": "Baidoa",
        "Town_Village": "Howlwadag",
        "site_type": "TSFP",
        "": ""
      },
      "geometry": {
        "type": "Point",
        "coordinates": [
          43.54367,
          3.11651
        ]
      }
    },
    {
      "type": "Feature",
      "properties": {
        "partner": "WFP",
        "region": "Hiraan",
        "district": "Belet Weyne",
        "Town_Village": "Hujub",
        "site_type": "TSFP",
        "": ""
      },
      "geometry": {
        "type": "Point",
        "coordinates": [
          45.28351,
          4.68502
        ]
      }
    },
    {
      "type": "Feature",
      "properties": {
        "partner": "WFP",
        "region": "Hiraan",
        "district": "Belet Weyne",
        "Town_Village": "Hujub",
        "site_type": "TSFP",
        "": ""
      },
      "geometry": {
        "type": "Point",
        "coordinates": [
          45.28351,
          4.68502
        ]
      }
    },
    {
      "type": "Feature",
      "properties": {
        "partner": "WFP",
        "region": "Galgaduud",
        "district": "Cabudwaaq",
        "Town_Village": "Huurshe",
        "site_type": "TSFP",
        "": ""
      },
      "geometry": {
        "type": "Point",
        "coordinates": [
          46.36417,
          5.98116
        ]
      }
    },
    {
      "type": "Feature",
      "properties": {
        "partner": "WFP",
        "region": "Bay",
        "district": "Baidoa",
        "Town_Village": "Idale ",
        "site_type": "TSFP",
        "": ""
      },
      "geometry": {
        "type": "Point",
        "coordinates": [
          43.34179,
          2.71534
        ]
      }
    },
    {
      "type": "Feature",
      "properties": {
        "partner": "WFP",
        "region": "Gedo",
        "district": "Luuq",
        "Town_Village": "IDP F",
        "site_type": "TSFP",
        "": ""
      },
      "geometry": {
        "type": "Point",
        "coordinates": [
          42.561513,
          3.777534
        ]
      }
    },
    {
      "type": "Feature",
      "properties": {
        "partner": "WFP",
        "region": "Togdheer",
        "district": "Burco",
        "Town_Village": "Isku Dhoonka",
        "site_type": "TSFP",
        "": ""
      },
      "geometry": {
        "type": "Point",
        "coordinates": [
          45.543828,
          9.264903
        ]
      }
    },