period,partner,district,site,site_id,latitude,longitude,program,MUAC ,OTP_discharges,other_SFP_returned_defaulters,old_cases_SC_OTP,cured,died,defaulter,non_cured,transfer_SC_OTP,total_beginning_month,total_admissions,total_discharges,total_endmonth,perc_recovered,perc_defaulted,perc_non_recovery
April,WVI,BeletXaawo,Alingo - TSFP,WFP10,3.95131,41.89715,TSFP_PLW,6,0,4,0,2,0,0,0,0,16,10,2,24,100,0,0
April,EPHCO,Rab Dhuure,yeed - District Capital,WFP10034,4.541978,43.022539,TSFP_PLW,4,0,7,0,0,0,0,0,0,21,11,0,32,0,0,0
April,Mercy USA,LaasCaanood,Yeyle - Settlement,WFP10036,8.698727,46.609919,TSFP_PLW,265,0,72,0,0,0,0,0,0,0,337,0,337,0,0,0
April,HADO,Caluula,Caluula - TSFP,WFP101,11.96039,50.75858,TSFP_PLW,9,0,0,0,43,0,0,0,0,300,9,43,266,100,0,0
April,SDRO,Gaalkacyo,Carfuuda  - TSFP,WFP103,6.62902,47.58737,TSFP_PLW,3,0,0,0,3,0,0,0,0,13,3,3,13,100,0,0
April,HADO,Bossaso,Carmo - TSFP,WFP104,10.5665,49.0609,TSFP_PLW,7,0,0,0,26,0,0,0,0,100,7,26,81,100,0,0
April,Mercy USA,Buuhoodle,Cegaag - MCHN,WFP106,8.62001,46.49813,TSFP_PLW,6,0,0,0,0,0,0,0,0,53,6,0,59,0,0,0
April,WVI,BeletXaawo,Ceeldheere - TSFP,WFP110,5.36098,46.19675,TSFP_PLW,18,0,4,0,4,0,0,0,0,13,22,4,31,100,0,0
April,SHARDO,Balcad/Warsheikh,BALAD  - Settlement,WFP1164,2.62667,45.504799,TSFP_PLW,99,0,0,0,30,0,0,0,0,396,99,30,465,100,0,0
April,HEAL ,CeelAfweyn,Celcade  - TSFP,WFP117,9.808085,46.603849,TSFP_PLW,126,0,0,0,0,0,0,0,0,0,126,0,126,0,0,0
April,Mercy USA,Hobyo,Bijjelo - TSFP,WFP119,5.78645,47.70297,TSFP_PLW,10,0,0,0,9,0,0,0,0,120,10,9,121,100,0,0
April,WVI,Hargeysa,Bali Abane - Settlement,WFP1197,9.29667,44.529999,TSFP_PLW,10,0,0,0,19,0,0,0,0,50,10,19,41,100,0,0
April,WVI,Burtinle,Ceelweyne - TSFP,WFP124,7.74121,48.62122,TSFP_PLW,15,0,0,0,11,0,0,0,0,50,15,11,54,100,0,0
April,SDRO,Gaalkacyo,Ceel aqwaan - TSFP,WFP126,6.691801,47.377357,TSFP_PLW,4,0,0,0,2,0,0,0,0,14,4,2,16,100,0,0
April,WVI,Hargeysa,Baligubadale - Settlement,WFP1261,9,44.00833,TSFP_PLW,31,0,0,0,20,0,0,0,0,57,31,20,68,100,0,0
April,SDO,Jariiban,CEELXAGAR - TSFP,WFP128,7.4174,49.27849,TSFP_PLW,12,0,0,0,12,0,0,0,0,93,12,12,93,100,0,0
April,WVI,Garowe,Cuun - TSFP,WFP133,8.81879,48.89346,TSFP_PLW,14,0,0,0,7,0,0,0,0,43,14,7,50,100,0,0
April,RAWA,Xarardheere,Dabagalo - TSFP,WFP134,4.9217,47.66523,TSFP_PLW,93,0,0,0,63,0,5,7,0,261,93,75,279,84,7,9
April,SWISSO-kalmo,Dhuusamarreeb,Dabarre - TSFP,WFP135,5.18907,45.91851,TSFP_PLW,18,0,0,0,7,0,0,0,0,62,18,7,73,100,0,0
April,MEDAIR,Afgooye,Dameraale HF - TSFP,WFP137,2.25019,45.131199,TSFP_PLW,0,0,0,0,0,0,0,0,0,0,0,0,0,0,0,0
April,NEW WAYS ,Baraawe,BARAWE  - District Capital,WFP1389,1.11477,44.03043,TSFP_PLW,176,0,7,0,0,0,0,0,0,0,183,0,183,0,0,0
April,WVI,Baydhaba/Bardaale,Darusalam - TSFP,WFP139,3.117954,43.662952,TSFP_PLW,8,0,0,0,10,0,0,5,0,41,8,15,34,67,0,33
April,Mercy USA,Cabudwaaq,Bangele - TSFP,WFP147,6.15527,46.43626,TSFP_PLW,13,0,0,0,16,0,0,0,0,127,13,16,124,100,0,0
April,Mercy USA,Buuhoodle,Dhalaamo Cune - TSFP,WFP151,8.375667,46.621676,TSFP_PLW,0,0,0,0,0,0,0,0,0,70,0,0,70,0,0,0
April,RAWA,Xarardheere,Dhalwo - TSFP,WFP152,4.5612,47.56813,TSFP_PLW,49,0,0,0,41,0,3,5,0,164,49,49,164,84,6,10
April,SCI,Borama,Boon - Settlement,WFP1535,10.18513,43.0841,TSFP_PLW,41,0,0,0,0,0,0,0,0,266,41,0,307,0,0,0
April,WVI,Eyl,Dhegenle - TSFP,WFP156,7.83003,49.51149,TSFP_PLW,23,0,0,0,20,0,0,0,0,120,23,20,123,100,0,0
April,Mercy USA,Buuhoodle,Dhilaalo - TSFP,WFP157,8.440799,46.464777,TSFP_PLW,3,0,0,0,0,0,0,0,0,64,3,0,67,0,0,0
April,WRRS,Afmadow,dhobley - TSFP,WFP158,0.40627,41.01238,TSFP_PLW,5,0,0,0,4,0,0,1,0,465,5,5,465,80,0,20
April,HADO,Bandarbayla,Dhudhub - TSFP,WFP160,9.22973,49.91697,TSFP_PLW,6,0,0,0,19,0,0,0,0,178,6,19,165,100,0,0
April,Mercy USA,Hobyo,Wisil town  - MCHN,WFP163,5.42775,48.12112,TSFP_PLW,8,0,0,0,3,0,0,0,0,373,8,3,378,100,0,0
April,DHO,Diinsoor,Biilile - Settlement,WFP1639,3.18055,43.41617,TSFP_PLW,27,0,0,0,4,0,0,0,0,22,27,4,45,100,0,0
April,WRRS,Afmadow,dibi - TSFP,WFP165,0.5804,41.1217,TSFP_PLW,1,0,0,0,1,0,0,0,0,19,1,1,19,100,0,0
April,WVI,Eyl,Dillin - TSFP,WFP169,8.25548,49.5762,TSFP_PLW,15,0,0,0,13,0,0,0,0,47,15,13,49,100,0,0
April,SDRO,Gaalkacyo,Docol - TSFP,WFP170,6.432393,47.491112,TSFP_PLW,9,0,0,0,13,0,0,0,0,41,9,13,37,100,0,0
April,HRDO,Cadaado,Biyo-gadud - Settlement,WFP1708,6.30798,46.65501,TSFP_PLW,5,0,0,0,0,0,0,0,0,20,5,0,25,0,0,0
April,SDRO,Gaalkacyo,Docole farale - TSFP,WFP173,6.67026,47.552374,TSFP_PLW,1,0,0,0,1,0,0,0,0,10,1,1,10,100,0,0
April,WVI,Doolow,DollowTown - TSFP,WFP176,4.16358,42.07617,TSFP_PLW,16,0,0,0,13,0,0,0,0,67,16,13,70,100,0,0
April,WVI,BeletXaawo,Booco - Settlement,WFP1779,4.33015,45.39258,TSFP_PLW,3,0,4,0,2,0,0,0,0,16,7,2,21,100,0,0
April,WVI,Garowe,Dudumaale - TSFP,WFP180,8.143998,48.776269,TSFP_PLW,15,0,0,0,2,0,0,0,0,23,15,2,36,100,0,0
April,WVI,Dan Gorayo,Budunbuto - Settlement,WFP1847,7.61778,49.07695,TSFP_PLW,11,0,0,0,10,0,0,1,0,40,11,11,40,91,0,9
April,HEAL ,Ceel Afweyn,Fadhigab  - TSFP,WFP186,9.666649,47.014348,TSFP_PLW,164,0,0,0,0,0,0,0,0,0,164,0,164,0,0,0
April,SWISSO-kalmo,Dhuusamarreeb,Faragoy - TSFP,WFP188,5.466401,46.524527,TSFP_PLW,15,0,0,0,12,0,0,0,0,51,15,12,54,100,0,0
April,WVI,Burtinle,Faratoyo - TSFP,WFP189,7.53474,47.81277,TSFP_PLW,11,0,0,0,8,0,0,1,0,48,11,9,50,89,0,11
April,HIDIG,Belet Weyne/Matabaan,Farlibah - TSFP,WFP190,4.87458,44.86873,TSFP_PLW,179,0,54,0,6,0,1,2,0,220,233,9,444,67,11,22
April,SWISSO-kalmo,Dhuusamarreeb,Gadon - TSFP,WFP194,5.68118,46.683252,TSFP_PLW,23,0,0,0,41,0,0,0,0,252,23,41,234,100,0,0
April,SDO,Jariiban,GALDOGOB - TSFP,WFP195,7.05755,47.13494,TSFP_PLW,17,0,0,0,17,0,0,0,0,320,17,17,320,100,0,0
April,SDRO,Gaalkacyo,Galinsoor - TSFP,WFP196,6.42639,46.70553,TSFP_PLW,5,0,0,0,5,0,0,0,0,19,5,5,19,100,0,0
April,Mercy USA,Laas Caanood,Gambadhe - TSFP,WFP197,8.542969,47.483103,TSFP_PLW,5,0,0,0,0,0,0,0,0,74,5,0,79,0,0,0
April,HADO,Iskushuban,Baargaal - TSFP,WFP20,11.28261,51.07728,TSFP_PLW,9,0,0,0,35,0,0,0,0,200,9,35,174,100,0,0
April,WVI,Doolow,Gedweyne - TSFP,WFP206,4.0302,42.29415,TSFP_PLW,32,0,0,0,6,0,0,0,0,28,32,6,54,100,0,0
April,WVI,Eyl,Godob Adun - TSFP,WFP209,7.6693,49.528099,TSFP_PLW,6,0,0,0,32,0,0,0,0,100,6,32,74,100,0,0
April,Gewdo,Garbahaarey,Buraa - Settlement,WFP2098,3.16962,42.14083,TSFP_PLW,0,0,0,0,57,0,1,2,0,71,0,60,11,95,2,3
April,WVI,Burtinle,Godobyar - TSFP,WFP211,7.72006,47.66395,TSFP_PLW,13,0,0,0,10,0,0,1,0,32,13,11,34,91,0,9
April,WVI,Doolow,Gubatta - TSFP,WFP221,4.1345,42.21043,TSFP_PLW,0,0,0,0,5,0,0,0,0,27,0,5,22,100,0,0
April,HADO,Iskushuban,Gumbax - TSFP,WFP222,10.88443,51.11405,TSFP_PLW,3,0,0,0,10,0,0,0,0,100,3,10,93,100,0,0
April,WVI,Burtinle,Hayaanle - TSFP,WFP236,7.90862,48.06493,TSFP_PLW,20,0,0,0,4,0,0,0,0,28,20,4,44,100,0,0
April,SDRO,Gaalkacyo,Horseed - TSFP,WFP242,3.209623,43.199554,TSFP_PLW,349,0,0,0,41,0,0,7,0,873,349,48,1174,85,0,15
April,WVI,Baydhaba/Bardaale,Howlwadag - TSFP,WFP244,3.11651,43.54367,TSFP_PLW,16,0,0,0,19,0,0,7,0,60,16,26,50,73,0,27
April,Mercy USA,Cabudwaaq,Mirjicley - TSFP,WFP246,5.98116,46.36417,TSFP_PLW,0,0,0,0,10,0,0,0,0,176,0,10,166,100,0,0
April,DHO,Diinsoor,Raahole - Settlement,WFP2490,2.42142,42.928669,TSFP_PLW,24,0,0,0,9,0,3,0,0,18,24,12,30,75,25,0
April,HADO,Iskushuban,Iskushuban - TSFP,WFP250,10.28178,50.23009,TSFP_PLW,7,0,0,0,70,0,0,0,0,312,7,70,249,100,0,0
April,WVI,Burtinle,Jalam - TSFP,WFP252,7.87079,48.04045,TSFP_PLW,19,0,0,0,12,0,0,1,0,150,19,13,156,92,0,8
April,SDO,Jariiban,JARIIBAN - TSFP,WFP257,7.21345,48.85104,TSFP_PLW,0,0,0,0,3,0,0,0,0,333,0,3,330,100,0,0
April,WVI,Eyl,Kabal - TSFP,WFP259,8.073611,49.959598,TSFP_PLW,13,0,0,0,11,0,0,0,0,40,13,11,42,100,0,0
April,WVI,Garowe,Kalabayr - TSFP,WFP261,8.41278,48.486389,TSFP_PLW,91,0,0,0,41,0,0,0,0,146,91,41,196,100,0,0
April,WVI,BeletXaawo,Kalagubta - TSFP,WFP263,3.933108,41.884086,TSFP_PLW,20,0,4,0,3,0,0,0,0,23,24,3,44,100,0,0
April,HEAL ,Ceel Afweyn,Kalsheish - TSFP,WFP266,10.062975,47.204693,TSFP_PLW,108,0,0,0,0,0,0,0,0,0,108,0,108,0,0,0
April,HEAL ,Ceel Afweyn,Badhigalis  - TSFP,WFP27,9.97234,47.29558,TSFP_PLW,64,0,0,0,0,0,0,0,0,0,64,0,64,0,0,0
April,HEAL ,Ceel Afweyn,LASDOMERE - TSFP,WFP270,9.81422,46.71377,TSFP_PLW,162,0,0,0,0,0,0,0,0,0,162,0,162,0,0,0
April,WVI,BeletXaawo,Lebiraar - TSFP,WFP275,3.73163,41.97727,TSFP_PLW,3,0,4,0,4,0,0,0,0,32,7,4,35,100,0,0
April,WVI,Dan Gorayo,Libaaxo - TSFP,WFP276,8.59308,49.19365,TSFP_PLW,8,0,0,0,8,0,0,0,0,35,8,8,35,100,0,0
April,WVI,Luuq,Luq Godey - TSFP,WFP279,3.79704,42.55408,TSFP_PLW,0,0,0,0,43,0,0,0,0,61,0,43,18,100,0,0
April,Mercy USA,Cabudwaaq,Hurshe - TSFP,WFP28,6.2102,46.42169,TSFP_PLW,11,0,0,0,11,0,0,0,0,160,11,11,160,100,0,0
April,WVI,Burtinle,Magacley - TSFP,WFP283,9.0875,49.585602,TSFP_PLW,0,0,0,0,30,0,0,1,0,50,0,31,19,97,0,3
April,WVI,Luuq,Maganey - TSFP,WFP284,3.7095,42.52007,TSFP_PLW,5,0,0,0,0,0,0,0,0,57,5,0,62,0,0,0
April,WVI,Eyl,Maraya - TSFP,WFP287,8.3206,50.16414,TSFP_PLW,17,0,0,0,15,0,0,0,0,67,17,15,69,100,0,0
April,SWISSO-kalmo,Dhuusamarreeb,Marergur - TSFP,WFP288,5.75047,46.51312,TSFP_PLW,23,0,0,0,14,0,0,0,0,183,23,14,192,100,0,0
April,SWISSO-kalmo,Marka,Marka - TSFP,WFP291,1.71305,44.76388,TSFP_PLW,445,0,0,0,217,0,0,0,0,652,445,217,880,100,0,0
April,RAWA,Xarardheere,Camara - TSFP,WFP300,5.11431,47.93026,TSFP_PLW,197,0,0,0,126,0,12,16,0,529,197,154,572,82,8,10
April,HEAL ,Ceel Afweyn,CEL-AFWEIN  - District Capital,WFP3011,9.92761,47.21537,TSFP_PLW,64,0,0,0,0,0,0,0,0,0,64,0,64,0,0,0
April,EPHCO,Ceel Barde,Ceeel Barde - District Capital,WFP3018,4.82821,43.659931,TSFP_PLW,10,0,4,0,0,0,0,0,0,51,14,0,65,0,0,0
April,SWISSO-kalmo,Dhuusamarreeb,Mirig - TSFP,WFP302,5.66243,46.42292,TSFP_PLW,28,0,0,0,4,0,0,0,0,70,28,4,94,100,0,0
April,Mercy USA,Cabudwaaq,Balanbale - TSFP,WFP303,5.68895,45.96932,TSFP_PLW,0,0,0,0,10,0,0,0,0,268,0,10,258,100,0,0
April,HADO,Caluula,Muudiye - TSFP,WFP307,11.35455,50.67907,TSFP_PLW,9,0,0,0,20,0,0,0,0,150,9,20,139,100,0,0
April,WVI,BeletXaawo,Oda - TSFP,WFP309,3.984213,41.937835,TSFP_PLW,32,0,3,0,3,0,0,0,0,14,35,3,46,100,0,0
April,HEAL ,Ceel Afweyn,Balanbal - TSFP,WFP31,5.763569,45.768628,TSFP_PLW,68,0,0,0,0,0,0,0,0,0,68,0,68,0,0,0
April,SWISSO-kalmo,Dhuusamarreeb,Olol - TSFP,WFP311,5.92195,46.23917,TSFP_PLW,15,0,0,0,6,0,0,0,0,51,15,6,60,100,0,0
April,HADO,Qandala,Qandala - TSFP,WFP316,11.469416,49.873322,TSFP_PLW,7,0,0,0,53,0,0,0,0,300,7,53,254,100,0,0
April,Mercy USA,Buuhoodle,Qararo - TSFP,WFP318,8.16935,46.50269,TSFP_PLW,0,0,0,0,0,0,0,0,0,43,0,0,43,0,0,0
April,Mercy USA,Hobyo,Gawan - TSFP,WFP319,5.31033,48.29483,TSFP_PLW,19,0,0,0,9,0,0,0,0,239,19,9,249,100,0,0
April,HADO,Qardho,Qardho - TSFP,WFP320,9.50694,49.086079,TSFP_PLW,25,0,0,0,133,0,0,0,0,900,25,133,792,100,0,0
April,WVI,Eyl,Qarxis - TSFP,WFP323,7.98389,48.10305,TSFP_PLW,44,0,0,0,42,0,0,0,0,117,44,42,119,100,0,0
April,Mercy USA,Hobyo,Qeydaro - TSFP,WFP326,5.78739,47.4884,TSFP_PLW,5,0,0,0,4,0,0,0,0,92,5,4,93,100,0,0
April,Mercy USA,Laas Caanood,QORILEY - TSFP,WFP330,8.003256,47.562959,TSFP_PLW,0,0,0,0,0,0,0,0,0,30,0,0,30,0,0,0
April,WVI,Garowe,Rabable - TSFP,WFP334,8.28125,48.29833,TSFP_PLW,13,0,0,0,3,0,0,0,0,33,13,3,43,100,0,0
April,HADO,Qardho,Rako - TSFP,WFP335,9.78144,49.72944,TSFP_PLW,23,0,0,0,15,0,0,0,0,150,23,15,158,100,0,0
April,WVI,Garowe,Reemanti - TSFP,WFP336,8.40861,48.481392,TSFP_PLW,33,0,0,0,13,0,0,0,0,63,33,13,83,100,0,0
April,Mercy USA,Laas Caanood,dabataag - Settlement,WFP3376,8.11431,47.16193,TSFP_PLW,4,0,0,0,0,0,0,0,0,91,4,0,95,0,0,0
April,WVI,Doolow,Seydhumay - TSFP,WFP339,4.1276,42.25621,TSFP_PLW,23,0,0,0,8,0,0,0,0,34,23,8,49,100,0,0
April,WVI,Hargeysa,Dacarudhug - Settlement,WFP3403,9.85648,44.527473,TSFP_PLW,37,0,0,0,18,0,0,0,0,95,37,18,114,100,0,0
April,SDRO,Gaalkacyo,Sadex higlo - TSFP,WFP342,6.49897,47.1122,TSFP_PLW,3,0,0,0,5,0,0,0,0,20,3,5,18,100,0,0
April,Mercy USA,Laas Caanood,Sahadheer  - TSFP,WFP344,8.00224,47.10488,TSFP_PLW,30,0,0,0,0,0,0,0,0,26,30,0,56,0,0,0
April,Mercy USA,Buuhoodle,Sarmaantuke - TSFP,WFP347,8.32738,46.48082,TSFP_PLW,4,0,0,0,0,0,0,0,0,82,4,0,86,0,0,0
April,Mercy USA,Laas Caanood,Sarmaanyo - MCHN,WFP348,9.48895,47.99372,TSFP_PLW,0,0,0,0,0,0,0,0,0,51,0,0,51,0,0,0
April,SWISSO-kalmo,Dhuusamarreeb,Balliad - TSFP,WFP35,5.48048,46.09062,TSFP_PLW,31,0,0,0,12,0,0,0,0,88,31,12,107,100,0,0
April,Mercy USA,Hargeisa  ,Daraweine - Settlement,WFP3527,9.719863,44.224505,TSFP_PLW,360,0,107,0,0,0,19,0,0,0,467,19,448,0,100,0
April,Mercy USA,Hargeisa  ,Darasalam - Settlement,WFP3528,9.84075,44.01367,TSFP_PLW,265,0,157,0,0,0,0,0,0,20,422,0,442,0,0,0
April,Mercy USA,Taleex,Shaxda - TSFP,WFP357,9.17797,48.90337,TSFP_PLW,47,0,0,0,0,0,0,0,0,170,47,0,217,0,0,0
April,HRDO,Cadaado,Dayano - Settlement,WFP3586,6.30965,46.67082,TSFP_PLW,11,0,0,0,0,0,0,0,0,23,11,0,34,0,0,0
April,Mercy USA,Buuhoodle,Balicad - TSFP,WFP36,8.08616,46.75012,TSFP_PLW,0,0,0,0,0,0,0,0,0,104,0,0,104,0,0,0
April,SHARDO,Abdul-aziz ,SHIBIS - TSFP,WFP360,2.037711,45.35,TSFP_PLW,260,0,0,0,145,0,0,0,0,991,260,145,1106,100,0,0
April,HEAL ,Ceel Afweyn,SHOODHE  - TSFP,WFP361,10.009707,47.367295,TSFP_PLW,11,0,0,0,0,0,0,0,0,9,11,0,20,0,0,0
April,HEAL ,Ceel Afweyn,SINCARO  - TSFP,WFP364,9.47695,47.0754,TSFP_PLW,206,0,0,0,0,0,0,0,0,0,206,0,206,0,0,0
April,WVI,Garowe,Sin-ujiif - TSFP,WFP365,8.53713,48.9852,TSFP_PLW,100,0,0,0,6,0,0,0,0,166,100,6,260,100,0,0
April,WVI,Doolow,Surgaduud - TSFP,WFP367,4.09584,42.02514,TSFP_PLW,30,0,0,0,9,0,0,0,0,27,30,9,48,100,0,0
April,WVI,Eyl,Suuban - TSFP,WFP369,7.78119,49.41792,TSFP_PLW,7,0,0,0,31,0,0,0,0,96,7,31,72,100,0,0
April,Mercy USA,Cabudwaaq,Dabad - Settlement,WFP3692,6.30619,46.54925,TSFP_PLW,12,0,0,0,4,0,0,0,0,182,12,4,190,100,0,0
April,WRRS,Afmadow,tabta - TSFP,WFP370,0.30463,41.43938,TSFP_PLW,2,0,0,0,4,0,0,0,0,210,2,4,208,100,0,0
April,HRDO,Cadaado,Dhagaxdher - Settlement,WFP3714,5.89619,46.83997,TSFP_PLW,10,0,0,0,0,0,0,0,0,44,10,0,54,0,0,0
April,Mercy USA,Taleex,Taleex - MCHN,WFP372,9.14839,48.42077,TSFP_PLW,4,0,0,0,0,0,0,0,0,145,4,0,149,0,0,0
April,WVI,Baydhaba/Bardaale,Towfiiq - TSFP,WFP374,3.126929,43.675404,TSFP_PLW,11,0,0,0,10,0,0,7,0,37,11,17,31,59,0,41
April,Mercy USA,Laas Caanood,Tukaraq  - MCHN,WFP375,8.567305,47.643818,TSFP_PLW,15,0,0,0,0,0,0,0,0,51,15,0,66,0,0,0
April,Mercy USA,Buuhoodle,Dhumay  - Settlement,WFP3750,8.326738,47.062849,TSFP_PLW,0,0,0,0,0,0,0,0,0,33,0,0,33,0,0,0
April,HADO,Bossaso,Ufeyn - TSFP,WFP378,10.65233,49.75337,TSFP_PLW,7,0,0,0,16,0,0,0,0,107,7,16,98,100,0,0
April,WVI,Doolow,Unsi - TSFP,WFP379,4.02341,41.95507,TSFP_PLW,21,0,0,0,9,0,0,0,0,36,21,9,48,100,0,0
April,DHO,Diinsoor,Waaberi - MCHN,WFP380,2.047638,45.35,TSFP_PLW,23,0,0,0,46,0,0,0,0,83,23,46,60,100,0,0
April,WVI,Baydhaba/Bardaale,Wadajir 4 - TSFP,WFP384,3.149063,43.667816,TSFP_PLW,8,0,0,0,4,0,0,0,0,24,8,4,28,100,0,0
April,WVI,Hargeysa,Dhimbiryaale - Settlement,WFP3875,9.272371,44.111165,TSFP_PLW,75,0,0,0,30,0,0,0,0,37,75,30,82,100,0,0
April,WVI,Eyl,Wargaduud - TSFP,WFP388,7.72972,49.06849,TSFP_PLW,9,0,0,0,59,0,0,0,0,120,9,59,70,100,0,0
April,HADO,Qandala,Balidhidin - TSFP,WFP39,10.87986,50.39222,TSFP_PLW,10,0,0,0,21,0,0,0,0,170,10,21,159,100,0,0
April,SHARDO,Balcad/Warsheikh,WARSHEIKH - TSFP,WFP390,2.298294,45.79799,TSFP_PLW,0,0,0,0,51,0,0,0,0,166,0,51,115,100,0,0
April,HEAL ,Ceel Afweyn,DHOOMO  - Settlement,WFP3903,9.731548,47.032602,TSFP_PLW,75,0,0,0,0,0,0,0,0,0,75,0,75,0,0,0
April,RAAS,Garbahaarey,Dhubaa - Settlement,WFP3909,3.08896,42.2837,TSFP_PLW,0,0,0,0,0,0,0,0,0,80,0,0,80,0,0,0
April,Mercy USA,Buuhoodle,Widh widh - MCHN,WFP392,8.454123,46.706793,TSFP_PLW,8,0,0,0,0,0,0,0,0,59,8,0,67,0,0,0
April,Mercy USA,Hobyo,Bacadweyn  - TSFP,WFP393,5.32453,47.90805,TSFP_PLW,3,0,0,0,7,0,0,0,0,164,3,7,160,100,0,0
April,HADO,Caluula,Xaabo - MCHN,WFP394,11.52195,50.52195,TSFP_PLW,7,0,0,0,44,0,0,0,0,270,7,44,233,100,0,0
April,HADO,Iskushuban,Xaafuun - TSFP,WFP396,10.42312,51.26094,TSFP_PLW,5,0,0,0,33,0,0,0,0,200,5,33,172,100,0,0
April,Mercy USA,Buuhoodle,Balihadhac  - TSFP,WFP40,8.44057,46.84215,TSFP_PLW,1,0,0,0,0,0,0,0,0,87,1,0,88,0,0,0
April,Mercy USA,Buuhoodle,Xamar lagu xidh - MCHN,WFP400,8.173037,46.502336,TSFP_PLW,0,0,0,0,0,0,0,0,0,57,0,0,57,0,0,0
April,HRDO,Cadaado,Docoley - Settlement,WFP4052,6.1366,46.95448,TSFP_PLW,11,0,0,0,0,0,0,0,0,22,11,0,33,0,0,0
April,WVI,Garowe,Xamur - TSFP,WFP406,8.72209,48.74333,TSFP_PLW,18,0,0,0,5,0,0,0,0,23,18,5,36,100,0,0
April,WVI,Garowe,Xamxamaa - TSFP,WFP407,8.15768,49.05728,TSFP_PLW,85,0,0,0,5,0,0,0,0,43,85,5,123,100,0,0
April,Gewdo,Garbahaarey,Doofarey - Settlement,WFP4084,3.31898,42.25413,TSFP_PLW,9,0,0,0,0,0,0,0,0,0,9,0,9,0,0,0
April,Mercy USA,Cabudwaaq,Herale - TSFP,WFP413,6.02351,45.96333,TSFP_PLW,6,0,0,0,6,0,0,0,0,308,6,6,308,100,0,0
April,Mercy USA,Buuhoodle,Xidhxidh - TSFP,WFP416,8.37355,46.986236,TSFP_PLW,7,0,0,0,0,0,0,0,0,65,7,0,72,0,0,0
April,RAWA,Xarardheere,Dumaye - TSFP,WFP420,4.87728,47.61589,TSFP_PLW,71,0,0,0,45,0,4,6,0,230,71,55,246,82,7,11
April,HADO,Iskushuban,Xiriiro - TSFP,WFP422,9.97824,50.25085,TSFP_PLW,4,0,0,0,12,0,0,0,0,150,4,12,142,100,0,0
April,Mercy USA,Xudun,Hudun - MCHN,WFP423,9.154231,47.475393,TSFP_PLW,0,0,0,0,0,0,0,0,0,72,0,0,72,0,0,0
April,Mercy USA,Taleex,Yibaayil  - TSFP,WFP428,8.99713,48.89067,TSFP_PLW,14,0,0,0,0,0,0,0,0,72,14,0,86,0,0,0
April,WVI,Burtinle,Bahaley - TSFP,WFP434,7.60802,47.50677,TSFP_PLW,8,0,0,0,8,0,0,1,0,30,8,9,29,89,0,11
April,HIDIG,Ceel Barde,Ahmed Korey - TSFP,WFP436,4.88194,44.24083,TSFP_PLW,26,0,23,0,2,0,1,0,0,30,49,3,76,67,33,0
April,SHARDO,Balcad/Warsheikh,BALCAD - TSFP,WFP438,2.649542,45.049142,TSFP_PLW,0,0,0,0,396,0,0,0,0,195,0,396,-201,100,0,0
April,WVI,Garowe,22km - Settlement,WFP439,8.4776,48.65071,TSFP_PLW,16,0,0,0,2,0,0,0,0,26,16,2,40,100,0,0
April,SWISSO-kalmo,Dhuusamarreeb,Eldhere - Settlement,WFP4416,5.23121,46.45075,TSFP_PLW,31,0,0,0,13,0,0,0,0,134,31,13,152,100,0,0
April,WVI,Hargeysa,Farwayne - Settlement,WFP4522,9.33158,43.67031,TSFP_PLW,44,0,0,0,4,0,0,0,0,34,44,4,74,100,0,0
April,Mercy USA,Laas Caanood,faridhidhin  - Settlement,WFP4530,8.09201,47.99068,TSFP_PLW,0,0,0,0,0,0,0,0,0,116,0,0,116,0,0,0
April,HIMILO,Kisimayu,Farjano - Settlement,WFP4532,7.5654,47.79142,TSFP_PLW,0,0,0,0,0,0,0,0,0,227,0,0,227,0,0,0
April,SWISSO-kalmo,Dhuusamarreeb,Dhusamareb town - MCHN,WFP47,5.537643,46.386698,TSFP_PLW,97,0,0,0,50,0,0,0,0,400,97,50,447,100,0,0
April,Mercy USA,Hobyo,Galbarwaqo - Settlement,WFP4757,6.127836,47.678698,TSFP_PLW,3,0,0,0,4,0,0,0,0,85,3,4,84,100,0,0
April,HEAL ,Hargeisa  ,ABAARSO  - Settlement,WFP479,9.602462,43.880653,TSFP_PLW,378,0,152,0,0,0,0,0,0,0,530,0,530,0,0,0
April,SDRO,Gaalkacyo,Bandiradley - TSFP,WFP48,6.47979,46.945358,TSFP_PLW,12,0,0,0,1,0,0,0,0,36,12,1,47,100,0,0
April,HEAL ,Ceel Afweyn,GAR-ADAG  - Settlement,WFP4876,9.487011,46.866926,TSFP_PLW,885,0,17,0,0,0,0,0,0,0,902,0,902,0,0,0
April,Gewdo,Garbahaarey,Garbaharey - Regional Capital,WFP4990,3.328,42.219879,TSFP_PLW,0,0,0,0,85,0,0,3,0,107,0,88,19,97,0,3
April,SWISSO-kalmo,Afgooye,Afgooye - TSFP,WFP5,2.14158,45.118698,TSFP_PLW,734,0,0,0,544,0,0,0,0,642,734,544,832,100,0,0
April,WVI,Lughaye,Gargaara - Settlement,WFP5018,10.313044,43.805888,TSFP_PLW,87,0,2,0,83,0,0,0,0,35,89,83,41,100,0,0
April,WVI,Gebiley,Gabiley - District Capital,WFP5090,9.70577,43.62497,TSFP_PLW,57,0,5,0,80,0,4,0,0,204,62,84,182,95,5,0
April,WVI,Luuq,Abdikhier - Settlement,WFP513,3.87355,42.52765,TSFP_PLW,0,0,0,0,0,0,0,0,0,12,0,0,12,0,0,0
April,WVI,Lughaye,Geerisa - Settlement,WFP5143,10.60353,43.43364,TSFP_PLW,76,0,2,0,26,0,0,0,0,40,78,26,92,100,0,0
April,HRDO,Cadaado,Gidheys - Settlement,WFP5192,6.01858,46.6824,TSFP_PLW,8,0,0,0,0,0,0,0,0,19,8,0,27,0,0,0
April,HIDIG,Ceel Barde,Abesale - Settlement,WFP526,4.90445,44.5206,TSFP_PLW,24,0,36,0,3,0,1,1,0,58,60,5,113,60,20,20
April,Mercy USA,Buuhoodle,Banyaal - TSFP,WFP53,8.36836,46.53861,TSFP_PLW,0,0,0,0,0,0,0,0,0,63,0,0,63,0,0,0
April,WVI,Dan Gorayo,Baqbaq - TSFP,WFP54,7.82861,49.488331,TSFP_PLW,13,0,0,0,12,3,0,0,0,106,13,15,104,80,0,0
April,Mercy USA,Cabudwaaq,Abudwaq  - Settlement,WFP556,6.24187,46.22592,TSFP_PLW,9,0,0,0,6,0,0,0,0,199,9,6,202,100,0,0
April,HADO,Caluula,Bareeda - TSFP,WFP56,11.8702,51.05796,TSFP_PLW,5,0,0,0,21,0,0,0,0,150,5,21,134,100,0,0
April,Mercy USA,Taleex,Hangey - Settlement,WFP5655,9.13004,47.5761,TSFP_PLW,14,0,0,0,0,0,0,0,0,95,14,0,109,0,0,0
April,DHO,Diinsoor,Hawlwadaag - Settlement,WFP5751,2.00723,43.16499,TSFP_PLW,30,0,0,0,32,0,10,0,0,94,30,42,82,76,24,0
April,RAAS,Garbahaarey,Hillamarer - Settlement,WFP5803,3.22728,42.49406,TSFP_PLW,0,0,0,0,0,0,0,0,0,110,0,0,110,0,0,0
April,EPHCO,Ceel Barde,Hiirey - Settlement,WFP5845,4.80724,43.712,TSFP_PLW,4,0,2,0,0,0,0,0,0,24,6,0,30,0,0,0
April,WVI,Eyl,Badey - TSFP,WFP59,7.98566,49.83521,TSFP_PLW,31,0,0,0,30,1,0,0,0,100,31,31,100,97,0,0
April,SCI,Borama,Idhaanka  - Settlement,WFP6002,9.69256,43.30208,TSFP_PLW,10,0,0,0,6,0,0,0,0,223,10,6,227,100,0,0
April,HRDO,Cadaado,Iidoole - Settlement,WFP6018,6.17485,46.84643,TSFP_PLW,11,0,0,0,0,0,0,0,0,26,11,0,37,0,0,0
April,SCODO,Laas Caanood,Kalabaydh Lasanod - Settlement,WFP6482,8.242749,47.22691,TSFP_PLW,84,0,0,0,18,0,0,0,0,78,84,18,144,100,0,0
April,WVI,Gebiley,Kalabayidhi - Settlement,WFP6492,9.68069,43.47742,TSFP_PLW,60,0,2,0,30,0,0,0,0,140,62,30,172,100,0,0
April,Mercy USA,Hobyo,Kalabeyr - Settlement,WFP6495,4.92629,45.21723,TSFP_PLW,7,0,0,0,10,0,0,0,0,129,7,10,126,100,0,0
April,Mercy USA,Taleex,Kalcad  - Settlement,WFP6515,9.17566,48.14137,TSFP_PLW,0,0,0,0,0,0,0,0,0,200,0,0,200,0,0,0
April,Mercy USA,Laas Caanood,Karindabeyl weyn  - Settlement,WFP6564,8.113926,47.537422,TSFP_PLW,9,0,0,0,0,0,0,0,0,94,9,0,103,0,0,0
April,Mercy USA,Laas Caanood,karingarfood  - Settlement,WFP6565,8.126692,47.754498,TSFP_PLW,0,0,0,0,0,0,0,0,0,98,0,0,98,0,0,0
April,WVI,Garowe,B.dheer - TSFP,WFP67,8.25639,48.305828,TSFP_PLW,37,0,0,0,14,0,0,0,0,63,37,14,86,100,0,0
April,HEAL ,CeelAfweyn,BIXINKA  - TSFP,WFP69,10.113809,47.086639,TSFP_PLW,150,0,0,0,0,0,0,0,0,0,150,0,150,0,0,0
April,Mercy USA,LaasCaanood,Lasanod - Regional Capital,WFP6912,8.473575,47.354409,TSFP_PLW,476,0,25,0,0,0,0,0,0,0,501,0,501,0,0,0
April,DHO,Diinsoor,Lama warood - Settlement,WFP7022,2.51773,42.9721,TSFP_PLW,18,0,0,0,13,0,1,0,0,24,18,14,28,93,7,0
April,WVI,Lughaye,Lughaye - District Capital,WFP7165,10.682525,43.943153,TSFP_PLW,116,0,0,0,33,0,0,0,0,103,116,33,186,100,0,0
April,SWISSO-kalmo,Dhuusamarreeb,Bohol - TSFP,WFP72,5.74731,46.22785,TSFP_PLW,20,0,0,0,11,0,0,0,0,53,20,11,62,100,0,0
April,SCI,Deynile,Malable - Settlement,WFP7385,3.03813,43.43877,TSFP_PLW,306,0,0,0,0,0,0,0,0,2,306,0,308,0,0,0
April,Mercy USA,Laas Caanood,Boocame - MCHN,WFP75,8.396344,47.935664,TSFP_PLW,2,0,0,0,0,0,0,0,0,265,2,0,267,0,0,0
April,HRDO,Cadaado,Marsamage - Settlement,WFP7516,5.76868,47.26299,TSFP_PLW,7,0,0,0,0,0,0,0,0,37,7,0,44,0,0,0
April,HEAL ,Ceerigaabo,MAYDH  - Settlement,WFP7577,10.988259,47.109128,TSFP_PLW,660,0,19,0,0,0,0,0,0,0,679,0,679,0,0,0
April,Mercy USA,Hobyo,Hobyo town  - TSFP,WFP77,5.34743,48.5262,TSFP_PLW,22,0,0,0,11,0,0,0,0,413,22,11,424,100,0,0
April,Mercy USA,Kahda,Mogadishu - National Capital,WFP7702,2.04139,45.333721,TSFP_PLW,365,0,0,0,0,0,0,0,0,181,365,0,546,0,0,0
April,WVI,Doolow,Qansaxley - Settlement,WFP8123,2.58504,45.00872,TSFP_PLW,7,0,0,0,9,0,0,0,0,36,7,9,34,100,0,0
April,SDRO,Gaalkacyo,Qarqoora  - Settlement,WFP8152,6.74718,47.69378,TSFP_PLW,2,0,0,0,2,0,0,0,0,20,2,2,20,100,0,0
April,WVI,BeletXaawo,Buniyo - TSFP,WFP82,3.5444,41.85122,TSFP_PLW,10,0,5,0,3,0,0,0,0,21,15,3,33,100,0,0
April,SCI,Borama,Quljeed - Settlement,WFP8291,10.09149,43.00922,TSFP_PLW,27,0,0,0,3,0,0,0,0,240,27,3,264,100,0,0
April,WVI,Dan Gorayo,Qundhed - Settlement,WFP8300,8.89492,50.44462,TSFP_PLW,6,0,0,0,6,0,0,0,0,20,6,6,20,100,0,0
April,HIDIG,Ceel Barde,Quracjome - Settlement,WFP8310,4.9439,44.30128,TSFP_PLW,32,0,33,0,5,0,0,0,0,140,65,5,200,100,0,0
April,Mercy USA,Hargeisa  ,Sabawanag - Settlement,WFP8568,9.04489,44.58108,TSFP_PLW,429,0,102,0,0,0,6,0,0,8,531,6,533,0,100,0
April,SDO,Galdogob,BURSAALAX - TSFP,WFP86,7.17457,47.24316,TSFP_PLW,233,0,0,0,0,0,0,0,0,233,233,0,466,0,0,0
April,WVI,Hargeysa,Salahlaye - Settlement,WFP8622,9.02686,44.20228,TSFP_PLW,28,0,0,0,31,0,0,0,0,88,28,31,85,100,0,0
April,EPHCO,Ceel Barde,Salkudhooble - Settlement,WFP8632,4.90952,43.99175,TSFP_PLW,5,0,3,0,0,0,0,0,0,21,8,0,29,0,0,0
April,WVI,Burtinle,Burtinle - MCHN,WFP87,7.64157,47.83103,TSFP_PLW,109,0,0,0,64,0,0,1,0,209,109,65,253,98,0,2
April,SDO,Jariiban,SEEMADE - Settlement,WFP8737,6.8771,48.6721,TSFP_PLW,7,0,0,0,0,0,6,0,0,113,7,6,114,0,100,0
April,SWISSO-kalmo,Dhuusamarreeb,Shalaqben - Settlement,WFP8786,5.26156,45.765,TSFP_PLW,15,0,0,0,9,0,0,0,0,55,15,9,61,100,0,0
April,RAWA,Xarardheere,Caad - TSFP,WFP90,5.018489,47.982327,TSFP_PLW,59,0,0,0,41,0,4,5,0,157,59,50,166,82,8,10
April,WVI,Dan Gorayo,Suuj - Settlement,WFP9044,8.68593,50.36265,TSFP_PLW,9,0,0,0,9,0,0,0,0,25,9,9,25,100,0,0
April,Mercy USA,Cabudwaaq,Tawakal - Settlement,WFP9092,4.88902,45.04633,TSFP_PLW,3,0,0,0,2,0,0,0,0,94,3,2,95,100,0,0
April,HRDO,Cadaado,Bahdo - TSFP,WFP93,5.78938,47.2258,TSFP_PLW,46,0,0,0,39,0,0,0,0,758,46,39,765,100,0,0
April,WVI,Dan Gorayo,Usgure - Settlement,WFP9344,7.518322,49.416017,TSFP_PLW,16,0,0,0,15,1,0,1,0,128,16,17,127,88,0,6
April,HRDO,Cadaado,Wad - Settlement,WFP9422,6.34234,46.79284,TSFP_PLW,9,0,0,0,0,0,0,0,0,18,9,0,27,0,0,0
April,WVI,Gebiley,Wajaale - Settlement,WFP9432,9.60272,43.33481,TSFP_PLW,57,0,2,0,25,0,0,0,0,93,59,25,127,100,0,0
April,HRDO,Cadaado,Cadaado - TSFP,WFP95,6.131423,46.625464,TSFP_PLW,44,0,0,0,58,0,0,0,0,865,44,58,851,100,0,0
April,Mercy USA,Hobyo,Wargalo - Settlement,WFP9584,6.26335,47.5202,TSFP_PLW,2,0,0,0,1,0,0,0,0,108,2,1,109,100,0,0
April,WVI,BeletXaawo,Wariiryale - Settlement,WFP9598,3.90174,41.95904,TSFP_PLW,4,0,4,0,3,0,0,0,0,16,8,3,21,100,0,0
April,SHARDO,Cadale,CADALE - TSFP,WFP96,2.7568,46.319,TSFP_PLW,179,0,0,0,171,0,0,0,0,252,179,171,260,100,0,0
April,RAWA,Xarardheere,Warshubo - Settlement,WFP9623,5.132,47.432499,TSFP_PLW,43,0,0,0,42,0,3,4,0,136,43,49,130,86,6,8
April,Mercy USA,Taleex,Xalin  - Settlement,WFP9705,9.10633,48.6392,TSFP_PLW,0,0,0,0,0,0,0,0,0,114,0,0,114,0,0,0
